[
  {
    "codigoIbge": 1200013,
    "cidade": "Acrelândia",
    "uf": "AC",
    "latitude": -9.82581,
    "longitude": -66.8972
  },
  {
    "codigoIbge": 1200054,
    "cidade": "Assis Brasil",
    "uf": "AC",
    "latitude": -10.9298,
    "longitude": -69.5738
  },
  {
    "codigoIbge": 1200104,
    "cidade": "Brasiléia",
    "uf": "AC",
    "latitude": -10.995,
    "longitude": -68.7497
  },
  {
    "codigoIbge": 1200138,
    "cidade": "Bujari",
    "uf": "AC",
    "latitude": -9.81528,
    "longitude": -67.955
  },
  {
    "codigoIbge": 1200179,
    "cidade": "Capixaba",
    "uf": "AC",
    "latitude": -10.566,
    "longitude": -67.686
  },
  {
    "codigoIbge": 1200203,
    "cidade": "Cruzeiro do Sul",
    "uf": "AC",
    "latitude": -7.62762,
    "longitude": -72.6756
  },
  {
    "codigoIbge": 1200252,
    "cidade": "Epitaciolândia",
    "uf": "AC",
    "latitude": -11.0188,
    "longitude": -68.7341
  },
  {
    "codigoIbge": 1200302,
    "cidade": "Feijó",
    "uf": "AC",
    "latitude": -8.17054,
    "longitude": -70.351
  },
  {
    "codigoIbge": 1200328,
    "cidade": "Jordão",
    "uf": "AC",
    "latitude": -9.1908,
    "longitude": -71.9503
  },
  {
    "codigoIbge": 1200336,
    "cidade": "Mâncio Lima",
    "uf": "AC",
    "latitude": -7.61657,
    "longitude": -72.8997
  },
  {
    "codigoIbge": 1200344,
    "cidade": "Manoel Urbano",
    "uf": "AC",
    "latitude": -8.83291,
    "longitude": -69.2679
  },
  {
    "codigoIbge": 1200351,
    "cidade": "Marechal Thaumaturgo",
    "uf": "AC",
    "latitude": -8.93898,
    "longitude": -72.7997
  },
  {
    "codigoIbge": 1200385,
    "cidade": "Plácido de Castro",
    "uf": "AC",
    "latitude": -10.2806,
    "longitude": -67.1371
  },
  {
    "codigoIbge": 1200807,
    "cidade": "Porto Acre",
    "uf": "AC",
    "latitude": -9.58138,
    "longitude": -67.5478
  },
  {
    "codigoIbge": 1200393,
    "cidade": "Porto Walter",
    "uf": "AC",
    "latitude": -8.26323,
    "longitude": -72.7537
  },
  {
    "codigoIbge": 1200401,
    "cidade": "Rio Branco",
    "uf": "AC",
    "latitude": -9.97499,
    "longitude": -67.8243
  },
  {
    "codigoIbge": 1200427,
    "cidade": "Rodrigues Alves",
    "uf": "AC",
    "latitude": -7.73864,
    "longitude": -72.661
  },
  {
    "codigoIbge": 1200435,
    "cidade": "Santa Rosa do Purus",
    "uf": "AC",
    "latitude": -9.44652,
    "longitude": -70.4902
  },
  {
    "codigoIbge": 1200500,
    "cidade": "Sena Madureira",
    "uf": "AC",
    "latitude": -9.06596,
    "longitude": -68.6571
  },
  {
    "codigoIbge": 1200450,
    "cidade": "Senador Guiomard",
    "uf": "AC",
    "latitude": -10.1497,
    "longitude": -67.7362
  },
  {
    "codigoIbge": 1200609,
    "cidade": "Tarauacá",
    "uf": "AC",
    "latitude": -8.15697,
    "longitude": -70.7722
  },
  {
    "codigoIbge": 1200708,
    "cidade": "Xapuri",
    "uf": "AC",
    "latitude": -10.6516,
    "longitude": -68.4969
  },
  {
    "codigoIbge": 2700102,
    "cidade": "Água Branca",
    "uf": "AL",
    "latitude": -9.262,
    "longitude": -37.938
  },
  {
    "codigoIbge": 2700201,
    "cidade": "Anadia",
    "uf": "AL",
    "latitude": -9.68489,
    "longitude": -36.3078
  },
  {
    "codigoIbge": 2700300,
    "cidade": "Arapiraca",
    "uf": "AL",
    "latitude": -9.75487,
    "longitude": -36.6615
  },
  {
    "codigoIbge": 2700409,
    "cidade": "Atalaia",
    "uf": "AL",
    "latitude": -9.5119,
    "longitude": -36.0086
  },
  {
    "codigoIbge": 2700508,
    "cidade": "Barra de Santo Antônio",
    "uf": "AL",
    "latitude": -9.4023,
    "longitude": -35.5101
  },
  {
    "codigoIbge": 2700607,
    "cidade": "Barra de São Miguel",
    "uf": "AL",
    "latitude": -9.83842,
    "longitude": -35.9057
  },
  {
    "codigoIbge": 2700706,
    "cidade": "Batalha",
    "uf": "AL",
    "latitude": -9.6742,
    "longitude": -37.133
  },
  {
    "codigoIbge": 2700805,
    "cidade": "Belém",
    "uf": "AL",
    "latitude": -9.57047,
    "longitude": -36.4904
  },
  {
    "codigoIbge": 2700904,
    "cidade": "Belo Monte",
    "uf": "AL",
    "latitude": -9.82272,
    "longitude": -37.277
  },
  {
    "codigoIbge": 2701001,
    "cidade": "Boca da Mata",
    "uf": "AL",
    "latitude": -9.64308,
    "longitude": -36.2125
  },
  {
    "codigoIbge": 2701100,
    "cidade": "Branquinha",
    "uf": "AL",
    "latitude": -9.23342,
    "longitude": -36.0162
  },
  {
    "codigoIbge": 2701209,
    "cidade": "Cacimbinhas",
    "uf": "AL",
    "latitude": -9.40121,
    "longitude": -36.9911
  },
  {
    "codigoIbge": 2701308,
    "cidade": "Cajueiro",
    "uf": "AL",
    "latitude": -9.3994,
    "longitude": -36.1559
  },
  {
    "codigoIbge": 2701357,
    "cidade": "Campestre",
    "uf": "AL",
    "latitude": -8.84723,
    "longitude": -35.5685
  },
  {
    "codigoIbge": 2701407,
    "cidade": "Campo Alegre",
    "uf": "AL",
    "latitude": -9.78451,
    "longitude": -36.3525
  },
  {
    "codigoIbge": 2701506,
    "cidade": "Campo Grande",
    "uf": "AL",
    "latitude": -9.95542,
    "longitude": -36.7926
  },
  {
    "codigoIbge": 2701605,
    "cidade": "Canapi",
    "uf": "AL",
    "latitude": -9.11932,
    "longitude": -37.5967
  },
  {
    "codigoIbge": 2701704,
    "cidade": "Capela",
    "uf": "AL",
    "latitude": -9.41504,
    "longitude": -36.0826
  },
  {
    "codigoIbge": 2701803,
    "cidade": "Carneiros",
    "uf": "AL",
    "latitude": -9.48476,
    "longitude": -37.3773
  },
  {
    "codigoIbge": 2701902,
    "cidade": "Chã Preta",
    "uf": "AL",
    "latitude": -9.2556,
    "longitude": -36.2983
  },
  {
    "codigoIbge": 2702009,
    "cidade": "Coité do Nóia",
    "uf": "AL",
    "latitude": -9.63348,
    "longitude": -36.5845
  },
  {
    "codigoIbge": 2702108,
    "cidade": "Colônia Leopoldina",
    "uf": "AL",
    "latitude": -8.91806,
    "longitude": -35.7214
  },
  {
    "codigoIbge": 2702207,
    "cidade": "Coqueiro Seco",
    "uf": "AL",
    "latitude": -9.63715,
    "longitude": -35.7994
  },
  {
    "codigoIbge": 2702306,
    "cidade": "Coruripe",
    "uf": "AL",
    "latitude": -10.1276,
    "longitude": -36.1717
  },
  {
    "codigoIbge": 2702355,
    "cidade": "Craíbas",
    "uf": "AL",
    "latitude": -9.6178,
    "longitude": -36.7697
  },
  {
    "codigoIbge": 2702405,
    "cidade": "Delmiro Gouveia",
    "uf": "AL",
    "latitude": -9.38534,
    "longitude": -37.9987
  },
  {
    "codigoIbge": 2702504,
    "cidade": "Dois Riachos",
    "uf": "AL",
    "latitude": -9.38465,
    "longitude": -37.0965
  },
  {
    "codigoIbge": 2702553,
    "cidade": "Estrela de Alagoas",
    "uf": "AL",
    "latitude": -9.39089,
    "longitude": -36.7644
  },
  {
    "codigoIbge": 2702603,
    "cidade": "Feira Grande",
    "uf": "AL",
    "latitude": -9.89859,
    "longitude": -36.6815
  },
  {
    "codigoIbge": 2702702,
    "cidade": "Feliz Deserto",
    "uf": "AL",
    "latitude": -10.2935,
    "longitude": -36.3028
  },
  {
    "codigoIbge": 2702801,
    "cidade": "Flexeiras",
    "uf": "AL",
    "latitude": -9.27281,
    "longitude": -35.7139
  },
  {
    "codigoIbge": 2702900,
    "cidade": "Girau do Ponciano",
    "uf": "AL",
    "latitude": -9.88404,
    "longitude": -36.8316
  },
  {
    "codigoIbge": 2703007,
    "cidade": "Ibateguara",
    "uf": "AL",
    "latitude": -8.97823,
    "longitude": -35.9373
  },
  {
    "codigoIbge": 2703106,
    "cidade": "Igaci",
    "uf": "AL",
    "latitude": -9.53768,
    "longitude": -36.6372
  },
  {
    "codigoIbge": 2703205,
    "cidade": "Igreja Nova",
    "uf": "AL",
    "latitude": -10.1235,
    "longitude": -36.6597
  },
  {
    "codigoIbge": 2703304,
    "cidade": "Inhapi",
    "uf": "AL",
    "latitude": -9.22594,
    "longitude": -37.7509
  },
  {
    "codigoIbge": 2703403,
    "cidade": "Jacaré dos Homens",
    "uf": "AL",
    "latitude": -9.63545,
    "longitude": -37.2076
  },
  {
    "codigoIbge": 2703502,
    "cidade": "Jacuípe",
    "uf": "AL",
    "latitude": -8.83951,
    "longitude": -35.4591
  },
  {
    "codigoIbge": 2703601,
    "cidade": "Japaratinga",
    "uf": "AL",
    "latitude": -9.08746,
    "longitude": -35.2634
  },
  {
    "codigoIbge": 2703700,
    "cidade": "Jaramataia",
    "uf": "AL",
    "latitude": -9.66224,
    "longitude": -37.0046
  },
  {
    "codigoIbge": 2703759,
    "cidade": "Jequiá da Praia",
    "uf": "AL",
    "latitude": -10.0133,
    "longitude": -36.0142
  },
  {
    "codigoIbge": 2703809,
    "cidade": "Joaquim Gomes",
    "uf": "AL",
    "latitude": -9.1328,
    "longitude": -35.7474
  },
  {
    "codigoIbge": 2703908,
    "cidade": "Jundiá",
    "uf": "AL",
    "latitude": -8.93297,
    "longitude": -35.5669
  },
  {
    "codigoIbge": 2704005,
    "cidade": "Junqueiro",
    "uf": "AL",
    "latitude": -9.90696,
    "longitude": -36.4803
  },
  {
    "codigoIbge": 2704104,
    "cidade": "Lagoa da Canoa",
    "uf": "AL",
    "latitude": -9.83291,
    "longitude": -36.7413
  },
  {
    "codigoIbge": 2704203,
    "cidade": "Limoeiro de Anadia",
    "uf": "AL",
    "latitude": -9.74098,
    "longitude": -36.5121
  },
  {
    "codigoIbge": 2704302,
    "cidade": "Maceió",
    "uf": "AL",
    "latitude": -9.66599,
    "longitude": -35.735
  },
  {
    "codigoIbge": 2704401,
    "cidade": "Major Isidoro",
    "uf": "AL",
    "latitude": -9.53009,
    "longitude": -36.992
  },
  {
    "codigoIbge": 2704906,
    "cidade": "Mar Vermelho",
    "uf": "AL",
    "latitude": -9.44739,
    "longitude": -36.3881
  },
  {
    "codigoIbge": 2704500,
    "cidade": "Maragogi",
    "uf": "AL",
    "latitude": -9.00744,
    "longitude": -35.2267
  },
  {
    "codigoIbge": 2704609,
    "cidade": "Maravilha",
    "uf": "AL",
    "latitude": -9.23045,
    "longitude": -37.3524
  },
  {
    "codigoIbge": 2704708,
    "cidade": "Marechal Deodoro",
    "uf": "AL",
    "latitude": -9.70971,
    "longitude": -35.8967
  },
  {
    "codigoIbge": 2704807,
    "cidade": "Maribondo",
    "uf": "AL",
    "latitude": -9.58353,
    "longitude": -36.3045
  },
  {
    "codigoIbge": 2705002,
    "cidade": "Mata Grande",
    "uf": "AL",
    "latitude": -9.11824,
    "longitude": -37.7323
  },
  {
    "codigoIbge": 2705101,
    "cidade": "Matriz de Camaragibe",
    "uf": "AL",
    "latitude": -9.15437,
    "longitude": -35.5243
  },
  {
    "codigoIbge": 2705200,
    "cidade": "Messias",
    "uf": "AL",
    "latitude": -9.39384,
    "longitude": -35.8392
  },
  {
    "codigoIbge": 2705309,
    "cidade": "Minador do Negrão",
    "uf": "AL",
    "latitude": -9.31236,
    "longitude": -36.8696
  },
  {
    "codigoIbge": 2705408,
    "cidade": "Monteirópolis",
    "uf": "AL",
    "latitude": -9.60357,
    "longitude": -37.2505
  },
  {
    "codigoIbge": 2705507,
    "cidade": "Murici",
    "uf": "AL",
    "latitude": -9.30682,
    "longitude": -35.9428
  },
  {
    "codigoIbge": 2705606,
    "cidade": "Novo Lino",
    "uf": "AL",
    "latitude": -8.94191,
    "longitude": -35.664
  },
  {
    "codigoIbge": 2705705,
    "cidade": "Olho d'Água das Flores",
    "uf": "AL",
    "latitude": -9.53686,
    "longitude": -37.2971
  },
  {
    "codigoIbge": 2705804,
    "cidade": "Olho d'Água do Casado",
    "uf": "AL",
    "latitude": -9.50357,
    "longitude": -37.8301
  },
  {
    "codigoIbge": 2705903,
    "cidade": "Olho d'Água Grande",
    "uf": "AL",
    "latitude": -10.0572,
    "longitude": -36.8101
  },
  {
    "codigoIbge": 2706000,
    "cidade": "Olivença",
    "uf": "AL",
    "latitude": -9.51954,
    "longitude": -37.1954
  },
  {
    "codigoIbge": 2706109,
    "cidade": "Ouro Branco",
    "uf": "AL",
    "latitude": -9.15884,
    "longitude": -37.3556
  },
  {
    "codigoIbge": 2706208,
    "cidade": "Palestina",
    "uf": "AL",
    "latitude": -9.67493,
    "longitude": -37.339
  },
  {
    "codigoIbge": 2706307,
    "cidade": "Palmeira dos Índios",
    "uf": "AL",
    "latitude": -9.40568,
    "longitude": -36.6328
  },
  {
    "codigoIbge": 2706406,
    "cidade": "Pão de Açúcar",
    "uf": "AL",
    "latitude": -9.74032,
    "longitude": -37.4403
  },
  {
    "codigoIbge": 2706422,
    "cidade": "Pariconha",
    "uf": "AL",
    "latitude": -9.25634,
    "longitude": -37.9988
  },
  {
    "codigoIbge": 2706448,
    "cidade": "Paripueira",
    "uf": "AL",
    "latitude": -9.46313,
    "longitude": -35.552
  },
  {
    "codigoIbge": 2706505,
    "cidade": "Passo de Camaragibe",
    "uf": "AL",
    "latitude": -9.24511,
    "longitude": -35.4745
  },
  {
    "codigoIbge": 2706604,
    "cidade": "Paulo Jacinto",
    "uf": "AL",
    "latitude": -9.36792,
    "longitude": -36.3672
  },
  {
    "codigoIbge": 2706703,
    "cidade": "Penedo",
    "uf": "AL",
    "latitude": -10.2874,
    "longitude": -36.5819
  },
  {
    "codigoIbge": 2706802,
    "cidade": "Piaçabuçu",
    "uf": "AL",
    "latitude": -10.406,
    "longitude": -36.434
  },
  {
    "codigoIbge": 2706901,
    "cidade": "Pilar",
    "uf": "AL",
    "latitude": -9.60135,
    "longitude": -35.9543
  },
  {
    "codigoIbge": 2707008,
    "cidade": "Pindoba",
    "uf": "AL",
    "latitude": -9.47382,
    "longitude": -36.2918
  },
  {
    "codigoIbge": 2707107,
    "cidade": "Piranhas",
    "uf": "AL",
    "latitude": -9.624,
    "longitude": -37.757
  },
  {
    "codigoIbge": 2707206,
    "cidade": "Poço das Trincheiras",
    "uf": "AL",
    "latitude": -9.30742,
    "longitude": -37.2889
  },
  {
    "codigoIbge": 2707305,
    "cidade": "Porto Calvo",
    "uf": "AL",
    "latitude": -9.05195,
    "longitude": -35.3987
  },
  {
    "codigoIbge": 2707404,
    "cidade": "Porto de Pedras",
    "uf": "AL",
    "latitude": -9.16006,
    "longitude": -35.3049
  },
  {
    "codigoIbge": 2707503,
    "cidade": "Porto Real do Colégio",
    "uf": "AL",
    "latitude": -10.1849,
    "longitude": -36.8376
  },
  {
    "codigoIbge": 2707602,
    "cidade": "Quebrangulo",
    "uf": "AL",
    "latitude": -9.32001,
    "longitude": -36.4692
  },
  {
    "codigoIbge": 2707701,
    "cidade": "Rio Largo",
    "uf": "AL",
    "latitude": -9.47783,
    "longitude": -35.8394
  },
  {
    "codigoIbge": 2707800,
    "cidade": "Roteiro",
    "uf": "AL",
    "latitude": -9.83503,
    "longitude": -35.9782
  },
  {
    "codigoIbge": 2707909,
    "cidade": "Santa Luzia do Norte",
    "uf": "AL",
    "latitude": -9.6037,
    "longitude": -35.8232
  },
  {
    "codigoIbge": 2708006,
    "cidade": "Santana do Ipanema",
    "uf": "AL",
    "latitude": -9.36999,
    "longitude": -37.248
  },
  {
    "codigoIbge": 2708105,
    "cidade": "Santana do Mundaú",
    "uf": "AL",
    "latitude": -9.17141,
    "longitude": -36.2176
  },
  {
    "codigoIbge": 2708204,
    "cidade": "São Brás",
    "uf": "AL",
    "latitude": -10.1141,
    "longitude": -36.8522
  },
  {
    "codigoIbge": 2708303,
    "cidade": "São José da Laje",
    "uf": "AL",
    "latitude": -9.01278,
    "longitude": -36.0515
  },
  {
    "codigoIbge": 2708402,
    "cidade": "São José da Tapera",
    "uf": "AL",
    "latitude": -9.55768,
    "longitude": -37.3831
  },
  {
    "codigoIbge": 2708501,
    "cidade": "São Luís do Quitunde",
    "uf": "AL",
    "latitude": -9.31816,
    "longitude": -35.5606
  },
  {
    "codigoIbge": 2708600,
    "cidade": "São Miguel dos Campos",
    "uf": "AL",
    "latitude": -9.78301,
    "longitude": -36.0971
  },
  {
    "codigoIbge": 2708709,
    "cidade": "São Miguel dos Milagres",
    "uf": "AL",
    "latitude": -9.26493,
    "longitude": -35.3763
  },
  {
    "codigoIbge": 2708808,
    "cidade": "São Sebastião",
    "uf": "AL",
    "latitude": -9.93043,
    "longitude": -36.559
  },
  {
    "codigoIbge": 2708907,
    "cidade": "Satuba",
    "uf": "AL",
    "latitude": -9.56911,
    "longitude": -35.8227
  },
  {
    "codigoIbge": 2708956,
    "cidade": "Senador Rui Palmeira",
    "uf": "AL",
    "latitude": -9.46986,
    "longitude": -37.4576
  },
  {
    "codigoIbge": 2709004,
    "cidade": "Tanque d'Arca",
    "uf": "AL",
    "latitude": -9.53379,
    "longitude": -36.4366
  },
  {
    "codigoIbge": 2709103,
    "cidade": "Taquarana",
    "uf": "AL",
    "latitude": -9.64529,
    "longitude": -36.4928
  },
  {
    "codigoIbge": 2709152,
    "cidade": "Teotônio Vilela",
    "uf": "AL",
    "latitude": -9.91656,
    "longitude": -36.3492
  },
  {
    "codigoIbge": 2709202,
    "cidade": "Traipu",
    "uf": "AL",
    "latitude": -9.96262,
    "longitude": -37.0071
  },
  {
    "codigoIbge": 2709301,
    "cidade": "União dos Palmares",
    "uf": "AL",
    "latitude": -9.15921,
    "longitude": -36.0223
  },
  {
    "codigoIbge": 2709400,
    "cidade": "Viçosa",
    "uf": "AL",
    "latitude": -9.36763,
    "longitude": -36.2431
  },
  {
    "codigoIbge": 1300029,
    "cidade": "Alvarães",
    "uf": "AM",
    "latitude": -3.22727,
    "longitude": -64.8007
  },
  {
    "codigoIbge": 1300060,
    "cidade": "Amaturá",
    "uf": "AM",
    "latitude": -3.37455,
    "longitude": -68.2005
  },
  {
    "codigoIbge": 1300086,
    "cidade": "Anamã",
    "uf": "AM",
    "latitude": -3.56697,
    "longitude": -61.3963
  },
  {
    "codigoIbge": 1300102,
    "cidade": "Anori",
    "uf": "AM",
    "latitude": -3.74603,
    "longitude": -61.6575
  },
  {
    "codigoIbge": 1300144,
    "cidade": "Apuí",
    "uf": "AM",
    "latitude": -7.19409,
    "longitude": -59.896
  },
  {
    "codigoIbge": 1300201,
    "cidade": "Atalaia do Norte",
    "uf": "AM",
    "latitude": -4.37055,
    "longitude": -70.1967
  },
  {
    "codigoIbge": 1300300,
    "cidade": "Autazes",
    "uf": "AM",
    "latitude": -3.58574,
    "longitude": -59.1256
  },
  {
    "codigoIbge": 1300409,
    "cidade": "Barcelos",
    "uf": "AM",
    "latitude": -0.983373,
    "longitude": -62.9311
  },
  {
    "codigoIbge": 1300508,
    "cidade": "Barreirinha",
    "uf": "AM",
    "latitude": -2.79886,
    "longitude": -57.0679
  },
  {
    "codigoIbge": 1300607,
    "cidade": "Benjamin Constant",
    "uf": "AM",
    "latitude": -4.37768,
    "longitude": -70.0342
  },
  {
    "codigoIbge": 1300631,
    "cidade": "Beruri",
    "uf": "AM",
    "latitude": -3.89874,
    "longitude": -61.3616
  },
  {
    "codigoIbge": 1300680,
    "cidade": "Boa Vista do Ramos",
    "uf": "AM",
    "latitude": -2.97409,
    "longitude": -57.5873
  },
  {
    "codigoIbge": 1300706,
    "cidade": "Boca do Acre",
    "uf": "AM",
    "latitude": -8.74232,
    "longitude": -67.3919
  },
  {
    "codigoIbge": 1300805,
    "cidade": "Borba",
    "uf": "AM",
    "latitude": -4.39154,
    "longitude": -59.5874
  },
  {
    "codigoIbge": 1300839,
    "cidade": "Caapiranga",
    "uf": "AM",
    "latitude": -3.31537,
    "longitude": -61.2206
  },
  {
    "codigoIbge": 1300904,
    "cidade": "Canutama",
    "uf": "AM",
    "latitude": -6.52582,
    "longitude": -64.3953
  },
  {
    "codigoIbge": 1301001,
    "cidade": "Carauari",
    "uf": "AM",
    "latitude": -4.88161,
    "longitude": -66.9086
  },
  {
    "codigoIbge": 1301100,
    "cidade": "Careiro",
    "uf": "AM",
    "latitude": -3.76803,
    "longitude": -60.369
  },
  {
    "codigoIbge": 1301159,
    "cidade": "Careiro da Várzea",
    "uf": "AM",
    "latitude": -3.314,
    "longitude": -59.5557
  },
  {
    "codigoIbge": 1301209,
    "cidade": "Coari",
    "uf": "AM",
    "latitude": -4.09412,
    "longitude": -63.1441
  },
  {
    "codigoIbge": 1301308,
    "cidade": "Codajás",
    "uf": "AM",
    "latitude": -3.83053,
    "longitude": -62.0658
  },
  {
    "codigoIbge": 1301407,
    "cidade": "Eirunepé",
    "uf": "AM",
    "latitude": -6.65677,
    "longitude": -69.8662
  },
  {
    "codigoIbge": 1301506,
    "cidade": "Envira",
    "uf": "AM",
    "latitude": -7.43789,
    "longitude": -70.0281
  },
  {
    "codigoIbge": 1301605,
    "cidade": "Fonte Boa",
    "uf": "AM",
    "latitude": -2.52342,
    "longitude": -66.0942
  },
  {
    "codigoIbge": 1301654,
    "cidade": "Guajará",
    "uf": "AM",
    "latitude": -7.53797,
    "longitude": -72.5907
  },
  {
    "codigoIbge": 1301704,
    "cidade": "Humaitá",
    "uf": "AM",
    "latitude": -7.51171,
    "longitude": -63.0327
  },
  {
    "codigoIbge": 1301803,
    "cidade": "Ipixuna",
    "uf": "AM",
    "latitude": -7.04791,
    "longitude": -71.6934
  },
  {
    "codigoIbge": 1301852,
    "cidade": "Iranduba",
    "uf": "AM",
    "latitude": -3.27479,
    "longitude": -60.19
  },
  {
    "codigoIbge": 1301902,
    "cidade": "Itacoatiara",
    "uf": "AM",
    "latitude": -3.13861,
    "longitude": -58.4449
  },
  {
    "codigoIbge": 1301951,
    "cidade": "Itamarati",
    "uf": "AM",
    "latitude": -6.43852,
    "longitude": -68.2437
  },
  {
    "codigoIbge": 1302009,
    "cidade": "Itapiranga",
    "uf": "AM",
    "latitude": -2.74081,
    "longitude": -58.0293
  },
  {
    "codigoIbge": 1302108,
    "cidade": "Japurá",
    "uf": "AM",
    "latitude": -1.88237,
    "longitude": -66.9291
  },
  {
    "codigoIbge": 1302207,
    "cidade": "Juruá",
    "uf": "AM",
    "latitude": -3.48438,
    "longitude": -66.0718
  },
  {
    "codigoIbge": 1302306,
    "cidade": "Jutaí",
    "uf": "AM",
    "latitude": -2.75814,
    "longitude": -66.7595
  },
  {
    "codigoIbge": 1302405,
    "cidade": "Lábrea",
    "uf": "AM",
    "latitude": -7.26413,
    "longitude": -64.7948
  },
  {
    "codigoIbge": 1302504,
    "cidade": "Manacapuru",
    "uf": "AM",
    "latitude": -3.29066,
    "longitude": -60.6216
  },
  {
    "codigoIbge": 1302553,
    "cidade": "Manaquiri",
    "uf": "AM",
    "latitude": -3.44078,
    "longitude": -60.4612
  },
  {
    "codigoIbge": 1302603,
    "cidade": "Manaus",
    "uf": "AM",
    "latitude": -3.11866,
    "longitude": -60.0212
  },
  {
    "codigoIbge": 1302702,
    "cidade": "Manicoré",
    "uf": "AM",
    "latitude": -5.80462,
    "longitude": -61.2895
  },
  {
    "codigoIbge": 1302801,
    "cidade": "Maraã",
    "uf": "AM",
    "latitude": -1.85313,
    "longitude": -65.573
  },
  {
    "codigoIbge": 1302900,
    "cidade": "Maués",
    "uf": "AM",
    "latitude": -3.39289,
    "longitude": -57.7067
  },
  {
    "codigoIbge": 1303007,
    "cidade": "Nhamundá",
    "uf": "AM",
    "latitude": -2.20793,
    "longitude": -56.7112
  },
  {
    "codigoIbge": 1303106,
    "cidade": "Nova Olinda do Norte",
    "uf": "AM",
    "latitude": -3.90037,
    "longitude": -59.094
  },
  {
    "codigoIbge": 1303205,
    "cidade": "Novo Airão",
    "uf": "AM",
    "latitude": -2.63637,
    "longitude": -60.9434
  },
  {
    "codigoIbge": 1303304,
    "cidade": "Novo Aripuanã",
    "uf": "AM",
    "latitude": -5.12593,
    "longitude": -60.3732
  },
  {
    "codigoIbge": 1303403,
    "cidade": "Parintins",
    "uf": "AM",
    "latitude": -2.63741,
    "longitude": -56.729
  },
  {
    "codigoIbge": 1303502,
    "cidade": "Pauini",
    "uf": "AM",
    "latitude": -7.71311,
    "longitude": -66.992
  },
  {
    "codigoIbge": 1303536,
    "cidade": "Presidente Figueiredo",
    "uf": "AM",
    "latitude": -2.02981,
    "longitude": -60.0234
  },
  {
    "codigoIbge": 1303569,
    "cidade": "Rio Preto da Eva",
    "uf": "AM",
    "latitude": -2.7045,
    "longitude": -59.6858
  },
  {
    "codigoIbge": 1303601,
    "cidade": "Santa Isabel do Rio Negro",
    "uf": "AM",
    "latitude": -0.410824,
    "longitude": -65.0092
  },
  {
    "codigoIbge": 1303700,
    "cidade": "Santo Antônio do Içá",
    "uf": "AM",
    "latitude": -3.09544,
    "longitude": -67.9463
  },
  {
    "codigoIbge": 1303809,
    "cidade": "São Gabriel da Cachoeira",
    "uf": "AM",
    "latitude": -0.11909,
    "longitude": -67.084
  },
  {
    "codigoIbge": 1303908,
    "cidade": "São Paulo de Olivença",
    "uf": "AM",
    "latitude": -3.47292,
    "longitude": -68.9646
  },
  {
    "codigoIbge": 1303957,
    "cidade": "São Sebastião do Uatumã",
    "uf": "AM",
    "latitude": -2.55915,
    "longitude": -57.8731
  },
  {
    "codigoIbge": 1304005,
    "cidade": "Silves",
    "uf": "AM",
    "latitude": -2.81748,
    "longitude": -58.248
  },
  {
    "codigoIbge": 1304062,
    "cidade": "Tabatinga",
    "uf": "AM",
    "latitude": -4.2416,
    "longitude": -69.9383
  },
  {
    "codigoIbge": 1304104,
    "cidade": "Tapauá",
    "uf": "AM",
    "latitude": -5.62085,
    "longitude": -63.1808
  },
  {
    "codigoIbge": 1304203,
    "cidade": "Tefé",
    "uf": "AM",
    "latitude": -3.36822,
    "longitude": -64.7193
  },
  {
    "codigoIbge": 1304237,
    "cidade": "Tonantins",
    "uf": "AM",
    "latitude": -2.86582,
    "longitude": -67.7919
  },
  {
    "codigoIbge": 1304260,
    "cidade": "Uarini",
    "uf": "AM",
    "latitude": -2.99609,
    "longitude": -65.1133
  },
  {
    "codigoIbge": 1304302,
    "cidade": "Urucará",
    "uf": "AM",
    "latitude": -2.52936,
    "longitude": -57.7538
  },
  {
    "codigoIbge": 1304401,
    "cidade": "Urucurituba",
    "uf": "AM",
    "latitude": -3.12841,
    "longitude": -58.1496
  },
  {
    "codigoIbge": 1600105,
    "cidade": "Amapá",
    "uf": "AP",
    "latitude": 2.05267,
    "longitude": -50.7957
  },
  {
    "codigoIbge": 1600204,
    "cidade": "Calçoene",
    "uf": "AP",
    "latitude": 2.50475,
    "longitude": -50.9512
  },
  {
    "codigoIbge": 1600212,
    "cidade": "Cutias",
    "uf": "AP",
    "latitude": 0.970761,
    "longitude": -50.8005
  },
  {
    "codigoIbge": 1600238,
    "cidade": "Ferreira Gomes",
    "uf": "AP",
    "latitude": 0.857256,
    "longitude": -51.1795
  },
  {
    "codigoIbge": 1600253,
    "cidade": "Itaubal",
    "uf": "AP",
    "latitude": 0.602185,
    "longitude": -50.6996
  },
  {
    "codigoIbge": 1600279,
    "cidade": "Laranjal do Jari",
    "uf": "AP",
    "latitude": -0.804911,
    "longitude": -52.453
  },
  {
    "codigoIbge": 1600303,
    "cidade": "Macapá",
    "uf": "AP",
    "latitude": 0.034934,
    "longitude": -51.0694
  },
  {
    "codigoIbge": 1600402,
    "cidade": "Mazagão",
    "uf": "AP",
    "latitude": -0.11336,
    "longitude": -51.2891
  },
  {
    "codigoIbge": 1600501,
    "cidade": "Oiapoque",
    "uf": "AP",
    "latitude": 3.84074,
    "longitude": -51.8331
  },
  {
    "codigoIbge": 1600154,
    "cidade": "Pedra Branca do Amapari",
    "uf": "AP",
    "latitude": 0.777424,
    "longitude": -51.9503
  },
  {
    "codigoIbge": 1600535,
    "cidade": "Porto Grande",
    "uf": "AP",
    "latitude": 0.71243,
    "longitude": -51.4155
  },
  {
    "codigoIbge": 1600550,
    "cidade": "Pracuúba",
    "uf": "AP",
    "latitude": 1.74543,
    "longitude": -50.7892
  },
  {
    "codigoIbge": 1600600,
    "cidade": "Santana",
    "uf": "AP",
    "latitude": -0.045434,
    "longitude": -51.1729
  },
  {
    "codigoIbge": 1600055,
    "cidade": "Serra do Navio",
    "uf": "AP",
    "latitude": 0.901357,
    "longitude": -52.0036
  },
  {
    "codigoIbge": 1600709,
    "cidade": "Tartarugalzinho",
    "uf": "AP",
    "latitude": 1.50652,
    "longitude": -50.9087
  },
  {
    "codigoIbge": 1600808,
    "cidade": "Vitória do Jari",
    "uf": "AP",
    "latitude": -0.938,
    "longitude": -52.424
  },
  {
    "codigoIbge": 2900108,
    "cidade": "Abaíra",
    "uf": "BA",
    "latitude": -13.2488,
    "longitude": -41.6619
  },
  {
    "codigoIbge": 2900207,
    "cidade": "Abaré",
    "uf": "BA",
    "latitude": -8.72073,
    "longitude": -39.1162
  },
  {
    "codigoIbge": 2900306,
    "cidade": "Acajutiba",
    "uf": "BA",
    "latitude": -11.6575,
    "longitude": -38.0197
  },
  {
    "codigoIbge": 2900355,
    "cidade": "Adustina",
    "uf": "BA",
    "latitude": -10.5437,
    "longitude": -38.1113
  },
  {
    "codigoIbge": 2900405,
    "cidade": "Água Fria",
    "uf": "BA",
    "latitude": -11.8618,
    "longitude": -38.7639
  },
  {
    "codigoIbge": 2900603,
    "cidade": "Aiquara",
    "uf": "BA",
    "latitude": -14.1269,
    "longitude": -39.8937
  },
  {
    "codigoIbge": 2900702,
    "cidade": "Alagoinhas",
    "uf": "BA",
    "latitude": -12.1335,
    "longitude": -38.4208
  },
  {
    "codigoIbge": 2900801,
    "cidade": "Alcobaça",
    "uf": "BA",
    "latitude": -17.5195,
    "longitude": -39.2036
  },
  {
    "codigoIbge": 2900900,
    "cidade": "Almadina",
    "uf": "BA",
    "latitude": -14.7089,
    "longitude": -39.6415
  },
  {
    "codigoIbge": 2901007,
    "cidade": "Amargosa",
    "uf": "BA",
    "latitude": -13.0215,
    "longitude": -39.602
  },
  {
    "codigoIbge": 2901106,
    "cidade": "Amélia Rodrigues",
    "uf": "BA",
    "latitude": -12.3914,
    "longitude": -38.7563
  },
  {
    "codigoIbge": 2901155,
    "cidade": "América Dourada",
    "uf": "BA",
    "latitude": -11.4429,
    "longitude": -41.439
  },
  {
    "codigoIbge": 2901205,
    "cidade": "Anagé",
    "uf": "BA",
    "latitude": -14.6151,
    "longitude": -41.1356
  },
  {
    "codigoIbge": 2901304,
    "cidade": "Andaraí",
    "uf": "BA",
    "latitude": -12.8049,
    "longitude": -41.3297
  },
  {
    "codigoIbge": 2901353,
    "cidade": "Andorinha",
    "uf": "BA",
    "latitude": -10.3482,
    "longitude": -39.8391
  },
  {
    "codigoIbge": 2901403,
    "cidade": "Angical",
    "uf": "BA",
    "latitude": -12.0063,
    "longitude": -44.7003
  },
  {
    "codigoIbge": 2901502,
    "cidade": "Anguera",
    "uf": "BA",
    "latitude": -12.1462,
    "longitude": -39.2462
  },
  {
    "codigoIbge": 2901601,
    "cidade": "Antas",
    "uf": "BA",
    "latitude": -10.3856,
    "longitude": -38.3401
  },
  {
    "codigoIbge": 2901700,
    "cidade": "Antônio Cardoso",
    "uf": "BA",
    "latitude": -12.4335,
    "longitude": -39.1176
  },
  {
    "codigoIbge": 2901809,
    "cidade": "Antônio Gonçalves",
    "uf": "BA",
    "latitude": -10.5767,
    "longitude": -40.2785
  },
  {
    "codigoIbge": 2901908,
    "cidade": "Aporá",
    "uf": "BA",
    "latitude": -11.6577,
    "longitude": -38.0814
  },
  {
    "codigoIbge": 2901957,
    "cidade": "Apuarema",
    "uf": "BA",
    "latitude": -13.8542,
    "longitude": -39.7501
  },
  {
    "codigoIbge": 2902054,
    "cidade": "Araças",
    "uf": "BA",
    "latitude": -12.22,
    "longitude": -38.2027
  },
  {
    "codigoIbge": 2902005,
    "cidade": "Aracatu",
    "uf": "BA",
    "latitude": -14.428,
    "longitude": -41.4648
  },
  {
    "codigoIbge": 2902104,
    "cidade": "Araci",
    "uf": "BA",
    "latitude": -11.3253,
    "longitude": -38.9584
  },
  {
    "codigoIbge": 2902203,
    "cidade": "Aramari",
    "uf": "BA",
    "latitude": -12.0884,
    "longitude": -38.4969
  },
  {
    "codigoIbge": 2902252,
    "cidade": "Arataca",
    "uf": "BA",
    "latitude": -15.2651,
    "longitude": -39.419
  },
  {
    "codigoIbge": 2902302,
    "cidade": "Aratuípe",
    "uf": "BA",
    "latitude": -13.0716,
    "longitude": -39.0038
  },
  {
    "codigoIbge": 2902401,
    "cidade": "Aurelino Leal",
    "uf": "BA",
    "latitude": -14.321,
    "longitude": -39.329
  },
  {
    "codigoIbge": 2902500,
    "cidade": "Baianópolis",
    "uf": "BA",
    "latitude": -12.3016,
    "longitude": -44.5388
  },
  {
    "codigoIbge": 2902609,
    "cidade": "Baixa Grande",
    "uf": "BA",
    "latitude": -11.9519,
    "longitude": -40.169
  },
  {
    "codigoIbge": 2902658,
    "cidade": "Banzaê",
    "uf": "BA",
    "latitude": -10.5788,
    "longitude": -38.6212
  },
  {
    "codigoIbge": 2902708,
    "cidade": "Barra",
    "uf": "BA",
    "latitude": -11.0859,
    "longitude": -43.1459
  },
  {
    "codigoIbge": 2902807,
    "cidade": "Barra da Estiva",
    "uf": "BA",
    "latitude": -13.6237,
    "longitude": -41.3347
  },
  {
    "codigoIbge": 2902906,
    "cidade": "Barra do Choça",
    "uf": "BA",
    "latitude": -14.8654,
    "longitude": -40.5791
  },
  {
    "codigoIbge": 2903003,
    "cidade": "Barra do Mendes",
    "uf": "BA",
    "latitude": -11.81,
    "longitude": -42.059
  },
  {
    "codigoIbge": 2903102,
    "cidade": "Barra do Rocha",
    "uf": "BA",
    "latitude": -14.2,
    "longitude": -39.5991
  },
  {
    "codigoIbge": 2903201,
    "cidade": "Barreiras",
    "uf": "BA",
    "latitude": -12.1439,
    "longitude": -44.9968
  },
  {
    "codigoIbge": 2903235,
    "cidade": "Barro Alto",
    "uf": "BA",
    "latitude": -11.7605,
    "longitude": -41.9054
  },
  {
    "codigoIbge": 2903300,
    "cidade": "Barro Preto",
    "uf": "BA",
    "latitude": -14.7948,
    "longitude": -39.476
  },
  {
    "codigoIbge": 2903276,
    "cidade": "Barrocas",
    "uf": "BA",
    "latitude": -11.5272,
    "longitude": -39.0776
  },
  {
    "codigoIbge": 2903409,
    "cidade": "Belmonte",
    "uf": "BA",
    "latitude": -15.8608,
    "longitude": -38.8758
  },
  {
    "codigoIbge": 2903508,
    "cidade": "Belo Campo",
    "uf": "BA",
    "latitude": -15.0334,
    "longitude": -41.2652
  },
  {
    "codigoIbge": 2903607,
    "cidade": "Biritinga",
    "uf": "BA",
    "latitude": -11.6072,
    "longitude": -38.8051
  },
  {
    "codigoIbge": 2903706,
    "cidade": "Boa Nova",
    "uf": "BA",
    "latitude": -14.3598,
    "longitude": -40.2064
  },
  {
    "codigoIbge": 2903805,
    "cidade": "Boa Vista do Tupim",
    "uf": "BA",
    "latitude": -12.6498,
    "longitude": -40.6064
  },
  {
    "codigoIbge": 2903904,
    "cidade": "Bom Jesus da Lapa",
    "uf": "BA",
    "latitude": -13.2506,
    "longitude": -43.4108
  },
  {
    "codigoIbge": 2903953,
    "cidade": "Bom Jesus da Serra",
    "uf": "BA",
    "latitude": -14.3663,
    "longitude": -40.5126
  },
  {
    "codigoIbge": 2904001,
    "cidade": "Boninal",
    "uf": "BA",
    "latitude": -12.7069,
    "longitude": -41.8286
  },
  {
    "codigoIbge": 2904050,
    "cidade": "Bonito",
    "uf": "BA",
    "latitude": -11.9668,
    "longitude": -41.2647
  },
  {
    "codigoIbge": 2904100,
    "cidade": "Boquira",
    "uf": "BA",
    "latitude": -12.8205,
    "longitude": -42.7324
  },
  {
    "codigoIbge": 2904209,
    "cidade": "Botuporã",
    "uf": "BA",
    "latitude": -13.3772,
    "longitude": -42.5163
  },
  {
    "codigoIbge": 2904308,
    "cidade": "Brejões",
    "uf": "BA",
    "latitude": -13.1039,
    "longitude": -39.7988
  },
  {
    "codigoIbge": 2904407,
    "cidade": "Brejolândia",
    "uf": "BA",
    "latitude": -12.4815,
    "longitude": -43.9679
  },
  {
    "codigoIbge": 2904506,
    "cidade": "Brotas de Macaúbas",
    "uf": "BA",
    "latitude": -11.9915,
    "longitude": -42.6326
  },
  {
    "codigoIbge": 2904605,
    "cidade": "Brumado",
    "uf": "BA",
    "latitude": -14.2021,
    "longitude": -41.6696
  },
  {
    "codigoIbge": 2904704,
    "cidade": "Buerarema",
    "uf": "BA",
    "latitude": -14.9595,
    "longitude": -39.3028
  },
  {
    "codigoIbge": 2904753,
    "cidade": "Buritirama",
    "uf": "BA",
    "latitude": -10.7171,
    "longitude": -43.6302
  },
  {
    "codigoIbge": 2904803,
    "cidade": "Caatiba",
    "uf": "BA",
    "latitude": -14.9699,
    "longitude": -40.4092
  },
  {
    "codigoIbge": 2904852,
    "cidade": "Cabaceiras do Paraguaçu",
    "uf": "BA",
    "latitude": -12.5317,
    "longitude": -39.1902
  },
  {
    "codigoIbge": 2904902,
    "cidade": "Cachoeira",
    "uf": "BA",
    "latitude": -12.5994,
    "longitude": -38.9587
  },
  {
    "codigoIbge": 2905008,
    "cidade": "Caculé",
    "uf": "BA",
    "latitude": -14.5003,
    "longitude": -42.2229
  },
  {
    "codigoIbge": 2905107,
    "cidade": "Caém",
    "uf": "BA",
    "latitude": -11.0677,
    "longitude": -40.432
  },
  {
    "codigoIbge": 2905156,
    "cidade": "Caetanos",
    "uf": "BA",
    "latitude": -14.3347,
    "longitude": -40.9175
  },
  {
    "codigoIbge": 2905206,
    "cidade": "Caetité",
    "uf": "BA",
    "latitude": -14.0684,
    "longitude": -42.4861
  },
  {
    "codigoIbge": 2905305,
    "cidade": "Cafarnaum",
    "uf": "BA",
    "latitude": -11.6914,
    "longitude": -41.4688
  },
  {
    "codigoIbge": 2905404,
    "cidade": "Cairu",
    "uf": "BA",
    "latitude": -13.4904,
    "longitude": -39.0465
  },
  {
    "codigoIbge": 2905503,
    "cidade": "Caldeirão Grande",
    "uf": "BA",
    "latitude": -11.0208,
    "longitude": -40.2956
  },
  {
    "codigoIbge": 2905602,
    "cidade": "Camacan",
    "uf": "BA",
    "latitude": -15.4142,
    "longitude": -39.4919
  },
  {
    "codigoIbge": 2905701,
    "cidade": "Camaçari",
    "uf": "BA",
    "latitude": -12.6996,
    "longitude": -38.3263
  },
  {
    "codigoIbge": 2905800,
    "cidade": "Camamu",
    "uf": "BA",
    "latitude": -13.9398,
    "longitude": -39.1071
  },
  {
    "codigoIbge": 2905909,
    "cidade": "Campo Alegre de Lourdes",
    "uf": "BA",
    "latitude": -9.52221,
    "longitude": -43.0126
  },
  {
    "codigoIbge": 2906006,
    "cidade": "Campo Formoso",
    "uf": "BA",
    "latitude": -10.5105,
    "longitude": -40.32
  },
  {
    "codigoIbge": 2906105,
    "cidade": "Canápolis",
    "uf": "BA",
    "latitude": -13.0725,
    "longitude": -44.201
  },
  {
    "codigoIbge": 2906204,
    "cidade": "Canarana",
    "uf": "BA",
    "latitude": -11.6858,
    "longitude": -41.7677
  },
  {
    "codigoIbge": 2906303,
    "cidade": "Canavieiras",
    "uf": "BA",
    "latitude": -15.6722,
    "longitude": -38.9536
  },
  {
    "codigoIbge": 2906402,
    "cidade": "Candeal",
    "uf": "BA",
    "latitude": -11.8049,
    "longitude": -39.1203
  },
  {
    "codigoIbge": 2906501,
    "cidade": "Candeias",
    "uf": "BA",
    "latitude": -12.6716,
    "longitude": -38.5472
  },
  {
    "codigoIbge": 2906600,
    "cidade": "Candiba",
    "uf": "BA",
    "latitude": -14.4097,
    "longitude": -42.8667
  },
  {
    "codigoIbge": 2906709,
    "cidade": "Cândido Sales",
    "uf": "BA",
    "latitude": -15.4993,
    "longitude": -41.2414
  },
  {
    "codigoIbge": 2906808,
    "cidade": "Cansanção",
    "uf": "BA",
    "latitude": -10.6647,
    "longitude": -39.4944
  },
  {
    "codigoIbge": 2906824,
    "cidade": "Canudos",
    "uf": "BA",
    "latitude": -9.90014,
    "longitude": -39.1471
  },
  {
    "codigoIbge": 2906857,
    "cidade": "Capela do Alto Alegre",
    "uf": "BA",
    "latitude": -11.6658,
    "longitude": -39.8349
  },
  {
    "codigoIbge": 2906873,
    "cidade": "Capim Grosso",
    "uf": "BA",
    "latitude": -11.3797,
    "longitude": -40.0089
  },
  {
    "codigoIbge": 2906899,
    "cidade": "Caraíbas",
    "uf": "BA",
    "latitude": -14.7177,
    "longitude": -41.2603
  },
  {
    "codigoIbge": 2906907,
    "cidade": "Caravelas",
    "uf": "BA",
    "latitude": -17.7268,
    "longitude": -39.2597
  },
  {
    "codigoIbge": 2907004,
    "cidade": "Cardeal da Silva",
    "uf": "BA",
    "latitude": -11.9472,
    "longitude": -37.9469
  },
  {
    "codigoIbge": 2907103,
    "cidade": "Carinhanha",
    "uf": "BA",
    "latitude": -14.2985,
    "longitude": -43.7724
  },
  {
    "codigoIbge": 2907202,
    "cidade": "Casa Nova",
    "uf": "BA",
    "latitude": -9.16408,
    "longitude": -40.974
  },
  {
    "codigoIbge": 2907301,
    "cidade": "Castro Alves",
    "uf": "BA",
    "latitude": -12.7579,
    "longitude": -39.4248
  },
  {
    "codigoIbge": 2907400,
    "cidade": "Catolândia",
    "uf": "BA",
    "latitude": -12.31,
    "longitude": -44.8648
  },
  {
    "codigoIbge": 2907509,
    "cidade": "Catu",
    "uf": "BA",
    "latitude": -12.3513,
    "longitude": -38.3791
  },
  {
    "codigoIbge": 2907558,
    "cidade": "Caturama",
    "uf": "BA",
    "latitude": -13.3239,
    "longitude": -42.2904
  },
  {
    "codigoIbge": 2907608,
    "cidade": "Central",
    "uf": "BA",
    "latitude": -11.1376,
    "longitude": -42.1116
  },
  {
    "codigoIbge": 2907707,
    "cidade": "Chorrochó",
    "uf": "BA",
    "latitude": -8.9695,
    "longitude": -39.0979
  },
  {
    "codigoIbge": 2907806,
    "cidade": "Cícero Dantas",
    "uf": "BA",
    "latitude": -10.5897,
    "longitude": -38.3794
  },
  {
    "codigoIbge": 2907905,
    "cidade": "Cipó",
    "uf": "BA",
    "latitude": -11.1032,
    "longitude": -38.5179
  },
  {
    "codigoIbge": 2908002,
    "cidade": "Coaraci",
    "uf": "BA",
    "latitude": -14.637,
    "longitude": -39.5556
  },
  {
    "codigoIbge": 2908101,
    "cidade": "Cocos",
    "uf": "BA",
    "latitude": -14.1814,
    "longitude": -44.5352
  },
  {
    "codigoIbge": 2908200,
    "cidade": "Conceição da Feira",
    "uf": "BA",
    "latitude": -12.5078,
    "longitude": -38.9978
  },
  {
    "codigoIbge": 2908309,
    "cidade": "Conceição do Almeida",
    "uf": "BA",
    "latitude": -12.7836,
    "longitude": -39.1715
  },
  {
    "codigoIbge": 2908408,
    "cidade": "Conceição do Coité",
    "uf": "BA",
    "latitude": -11.56,
    "longitude": -39.2808
  },
  {
    "codigoIbge": 2908507,
    "cidade": "Conceição do Jacuípe",
    "uf": "BA",
    "latitude": -12.3268,
    "longitude": -38.7684
  },
  {
    "codigoIbge": 2908606,
    "cidade": "Conde",
    "uf": "BA",
    "latitude": -11.8179,
    "longitude": -37.6131
  },
  {
    "codigoIbge": 2908705,
    "cidade": "Condeúba",
    "uf": "BA",
    "latitude": -14.9022,
    "longitude": -41.9718
  },
  {
    "codigoIbge": 2908804,
    "cidade": "Contendas do Sincorá",
    "uf": "BA",
    "latitude": -13.7537,
    "longitude": -41.048
  },
  {
    "codigoIbge": 2908903,
    "cidade": "Coração de Maria",
    "uf": "BA",
    "latitude": -12.2333,
    "longitude": -38.7487
  },
  {
    "codigoIbge": 2909000,
    "cidade": "Cordeiros",
    "uf": "BA",
    "latitude": -15.0356,
    "longitude": -41.9308
  },
  {
    "codigoIbge": 2909109,
    "cidade": "Coribe",
    "uf": "BA",
    "latitude": -13.8232,
    "longitude": -44.4586
  },
  {
    "codigoIbge": 2909208,
    "cidade": "Coronel João Sá",
    "uf": "BA",
    "latitude": -10.2847,
    "longitude": -37.9198
  },
  {
    "codigoIbge": 2909307,
    "cidade": "Correntina",
    "uf": "BA",
    "latitude": -13.3477,
    "longitude": -44.6333
  },
  {
    "codigoIbge": 2909406,
    "cidade": "Cotegipe",
    "uf": "BA",
    "latitude": -12.0228,
    "longitude": -44.2566
  },
  {
    "codigoIbge": 2909505,
    "cidade": "Cravolândia",
    "uf": "BA",
    "latitude": -13.3531,
    "longitude": -39.8031
  },
  {
    "codigoIbge": 2909604,
    "cidade": "Crisópolis",
    "uf": "BA",
    "latitude": -11.5059,
    "longitude": -38.1515
  },
  {
    "codigoIbge": 2909703,
    "cidade": "Cristópolis",
    "uf": "BA",
    "latitude": -12.2249,
    "longitude": -44.4214
  },
  {
    "codigoIbge": 2909802,
    "cidade": "Cruz das Almas",
    "uf": "BA",
    "latitude": -12.6675,
    "longitude": -39.1008
  },
  {
    "codigoIbge": 2909901,
    "cidade": "Curaçá",
    "uf": "BA",
    "latitude": -8.98458,
    "longitude": -39.8997
  },
  {
    "codigoIbge": 2910008,
    "cidade": "Dário Meira",
    "uf": "BA",
    "latitude": -14.4229,
    "longitude": -39.9031
  },
  {
    "codigoIbge": 2910057,
    "cidade": "Dias d'Ávila",
    "uf": "BA",
    "latitude": -12.6187,
    "longitude": -38.2926
  },
  {
    "codigoIbge": 2910107,
    "cidade": "Dom Basílio",
    "uf": "BA",
    "latitude": -13.7565,
    "longitude": -41.7677
  },
  {
    "codigoIbge": 2910206,
    "cidade": "Dom Macedo Costa",
    "uf": "BA",
    "latitude": -12.9016,
    "longitude": -39.1923
  },
  {
    "codigoIbge": 2910305,
    "cidade": "Elísio Medrado",
    "uf": "BA",
    "latitude": -12.9417,
    "longitude": -39.5191
  },
  {
    "codigoIbge": 2910404,
    "cidade": "Encruzilhada",
    "uf": "BA",
    "latitude": -15.5302,
    "longitude": -40.9124
  },
  {
    "codigoIbge": 2910503,
    "cidade": "Entre Rios",
    "uf": "BA",
    "latitude": -11.9392,
    "longitude": -38.0871
  },
  {
    "codigoIbge": 2900504,
    "cidade": "Érico Cardoso",
    "uf": "BA",
    "latitude": -13.4215,
    "longitude": -42.1352
  },
  {
    "codigoIbge": 2910602,
    "cidade": "Esplanada",
    "uf": "BA",
    "latitude": -11.7942,
    "longitude": -37.9432
  },
  {
    "codigoIbge": 2910701,
    "cidade": "Euclides da Cunha",
    "uf": "BA",
    "latitude": -10.5078,
    "longitude": -39.0153
  },
  {
    "codigoIbge": 2910727,
    "cidade": "Eunápolis",
    "uf": "BA",
    "latitude": -16.3715,
    "longitude": -39.5821
  },
  {
    "codigoIbge": 2910750,
    "cidade": "Fátima",
    "uf": "BA",
    "latitude": -10.616,
    "longitude": -38.2239
  },
  {
    "codigoIbge": 2910776,
    "cidade": "Feira da Mata",
    "uf": "BA",
    "latitude": -14.2044,
    "longitude": -44.2744
  },
  {
    "codigoIbge": 2910800,
    "cidade": "Feira de Santana",
    "uf": "BA",
    "latitude": -12.2664,
    "longitude": -38.9663
  },
  {
    "codigoIbge": 2910859,
    "cidade": "Filadélfia",
    "uf": "BA",
    "latitude": -10.7405,
    "longitude": -40.1437
  },
  {
    "codigoIbge": 2910909,
    "cidade": "Firmino Alves",
    "uf": "BA",
    "latitude": -14.9823,
    "longitude": -39.9269
  },
  {
    "codigoIbge": 2911006,
    "cidade": "Floresta Azul",
    "uf": "BA",
    "latitude": -14.8629,
    "longitude": -39.6579
  },
  {
    "codigoIbge": 2911105,
    "cidade": "Formosa do Rio Preto",
    "uf": "BA",
    "latitude": -11.0328,
    "longitude": -45.193
  },
  {
    "codigoIbge": 2911204,
    "cidade": "Gandu",
    "uf": "BA",
    "latitude": -13.7441,
    "longitude": -39.4747
  },
  {
    "codigoIbge": 2911253,
    "cidade": "Gavião",
    "uf": "BA",
    "latitude": -11.4688,
    "longitude": -39.7757
  },
  {
    "codigoIbge": 2911303,
    "cidade": "Gentio do Ouro",
    "uf": "BA",
    "latitude": -11.4342,
    "longitude": -42.5077
  },
  {
    "codigoIbge": 2911402,
    "cidade": "Glória",
    "uf": "BA",
    "latitude": -9.34382,
    "longitude": -38.2544
  },
  {
    "codigoIbge": 2911501,
    "cidade": "Gongogi",
    "uf": "BA",
    "latitude": -14.3195,
    "longitude": -39.469
  },
  {
    "codigoIbge": 2911600,
    "cidade": "Governador Mangabeira",
    "uf": "BA",
    "latitude": -12.5994,
    "longitude": -39.0412
  },
  {
    "codigoIbge": 2911659,
    "cidade": "Guajeru",
    "uf": "BA",
    "latitude": -14.5467,
    "longitude": -41.9381
  },
  {
    "codigoIbge": 2911709,
    "cidade": "Guanambi",
    "uf": "BA",
    "latitude": -14.2231,
    "longitude": -42.7799
  },
  {
    "codigoIbge": 2911808,
    "cidade": "Guaratinga",
    "uf": "BA",
    "latitude": -16.5833,
    "longitude": -39.7847
  },
  {
    "codigoIbge": 2911857,
    "cidade": "Heliópolis",
    "uf": "BA",
    "latitude": -10.6825,
    "longitude": -38.2907
  },
  {
    "codigoIbge": 2911907,
    "cidade": "Iaçu",
    "uf": "BA",
    "latitude": -12.7666,
    "longitude": -40.2056
  },
  {
    "codigoIbge": 2912004,
    "cidade": "Ibiassucê",
    "uf": "BA",
    "latitude": -14.2711,
    "longitude": -42.257
  },
  {
    "codigoIbge": 2912103,
    "cidade": "Ibicaraí",
    "uf": "BA",
    "latitude": -14.8579,
    "longitude": -39.5914
  },
  {
    "codigoIbge": 2912202,
    "cidade": "Ibicoara",
    "uf": "BA",
    "latitude": -13.4059,
    "longitude": -41.284
  },
  {
    "codigoIbge": 2912301,
    "cidade": "Ibicuí",
    "uf": "BA",
    "latitude": -14.845,
    "longitude": -39.9879
  },
  {
    "codigoIbge": 2912400,
    "cidade": "Ibipeba",
    "uf": "BA",
    "latitude": -11.6438,
    "longitude": -42.0195
  },
  {
    "codigoIbge": 2912509,
    "cidade": "Ibipitanga",
    "uf": "BA",
    "latitude": -12.8804,
    "longitude": -42.4856
  },
  {
    "codigoIbge": 2912608,
    "cidade": "Ibiquera",
    "uf": "BA",
    "latitude": -12.6444,
    "longitude": -40.9338
  },
  {
    "codigoIbge": 2912707,
    "cidade": "Ibirapitanga",
    "uf": "BA",
    "latitude": -14.1649,
    "longitude": -39.3787
  },
  {
    "codigoIbge": 2912806,
    "cidade": "Ibirapuã",
    "uf": "BA",
    "latitude": -17.6832,
    "longitude": -40.1129
  },
  {
    "codigoIbge": 2912905,
    "cidade": "Ibirataia",
    "uf": "BA",
    "latitude": -14.0643,
    "longitude": -39.6459
  },
  {
    "codigoIbge": 2913002,
    "cidade": "Ibitiara",
    "uf": "BA",
    "latitude": -12.6502,
    "longitude": -42.2179
  },
  {
    "codigoIbge": 2913101,
    "cidade": "Ibititá",
    "uf": "BA",
    "latitude": -11.5414,
    "longitude": -41.9748
  },
  {
    "codigoIbge": 2913200,
    "cidade": "Ibotirama",
    "uf": "BA",
    "latitude": -12.1779,
    "longitude": -43.2167
  },
  {
    "codigoIbge": 2913309,
    "cidade": "Ichu",
    "uf": "BA",
    "latitude": -11.7431,
    "longitude": -39.1905
  },
  {
    "codigoIbge": 2913408,
    "cidade": "Igaporã",
    "uf": "BA",
    "latitude": -13.774,
    "longitude": -42.7155
  },
  {
    "codigoIbge": 2913457,
    "cidade": "Igrapiúna",
    "uf": "BA",
    "latitude": -13.8295,
    "longitude": -39.1361
  },
  {
    "codigoIbge": 2913507,
    "cidade": "Iguaí",
    "uf": "BA",
    "latitude": -14.7528,
    "longitude": -40.0894
  },
  {
    "codigoIbge": 2913606,
    "cidade": "Ilhéus",
    "uf": "BA",
    "latitude": -14.793,
    "longitude": -39.046
  },
  {
    "codigoIbge": 2913705,
    "cidade": "Inhambupe",
    "uf": "BA",
    "latitude": -11.781,
    "longitude": -38.355
  },
  {
    "codigoIbge": 2913804,
    "cidade": "Ipecaetá",
    "uf": "BA",
    "latitude": -12.3028,
    "longitude": -39.3069
  },
  {
    "codigoIbge": 2913903,
    "cidade": "Ipiaú",
    "uf": "BA",
    "latitude": -14.1226,
    "longitude": -39.7353
  },
  {
    "codigoIbge": 2914000,
    "cidade": "Ipirá",
    "uf": "BA",
    "latitude": -12.1561,
    "longitude": -39.7359
  },
  {
    "codigoIbge": 2914109,
    "cidade": "Ipupiara",
    "uf": "BA",
    "latitude": -11.8219,
    "longitude": -42.6179
  },
  {
    "codigoIbge": 2914208,
    "cidade": "Irajuba",
    "uf": "BA",
    "latitude": -13.2563,
    "longitude": -40.0848
  },
  {
    "codigoIbge": 2914307,
    "cidade": "Iramaia",
    "uf": "BA",
    "latitude": -13.2902,
    "longitude": -40.9595
  },
  {
    "codigoIbge": 2914406,
    "cidade": "Iraquara",
    "uf": "BA",
    "latitude": -12.2429,
    "longitude": -41.6155
  },
  {
    "codigoIbge": 2914505,
    "cidade": "Irará",
    "uf": "BA",
    "latitude": -12.0504,
    "longitude": -38.7631
  },
  {
    "codigoIbge": 2914604,
    "cidade": "Irecê",
    "uf": "BA",
    "latitude": -11.3033,
    "longitude": -41.8535
  },
  {
    "codigoIbge": 2914653,
    "cidade": "Itabela",
    "uf": "BA",
    "latitude": -16.5732,
    "longitude": -39.5593
  },
  {
    "codigoIbge": 2914703,
    "cidade": "Itaberaba",
    "uf": "BA",
    "latitude": -12.5242,
    "longitude": -40.3059
  },
  {
    "codigoIbge": 2914802,
    "cidade": "Itabuna",
    "uf": "BA",
    "latitude": -14.7876,
    "longitude": -39.2781
  },
  {
    "codigoIbge": 2914901,
    "cidade": "Itacaré",
    "uf": "BA",
    "latitude": -14.2784,
    "longitude": -38.9959
  },
  {
    "codigoIbge": 2915007,
    "cidade": "Itaeté",
    "uf": "BA",
    "latitude": -12.9831,
    "longitude": -40.9677
  },
  {
    "codigoIbge": 2915106,
    "cidade": "Itagi",
    "uf": "BA",
    "latitude": -14.1615,
    "longitude": -40.0131
  },
  {
    "codigoIbge": 2915205,
    "cidade": "Itagibá",
    "uf": "BA",
    "latitude": -14.2782,
    "longitude": -39.8449
  },
  {
    "codigoIbge": 2915304,
    "cidade": "Itagimirim",
    "uf": "BA",
    "latitude": -16.0819,
    "longitude": -39.6133
  },
  {
    "codigoIbge": 2915353,
    "cidade": "Itaguaçu da Bahia",
    "uf": "BA",
    "latitude": -11.0147,
    "longitude": -42.3997
  },
  {
    "codigoIbge": 2915403,
    "cidade": "Itaju do Colônia",
    "uf": "BA",
    "latitude": -15.1366,
    "longitude": -39.7283
  },
  {
    "codigoIbge": 2915502,
    "cidade": "Itajuípe",
    "uf": "BA",
    "latitude": -14.6788,
    "longitude": -39.3698
  },
  {
    "codigoIbge": 2915601,
    "cidade": "Itamaraju",
    "uf": "BA",
    "latitude": -17.0378,
    "longitude": -39.5386
  },
  {
    "codigoIbge": 2915700,
    "cidade": "Itamari",
    "uf": "BA",
    "latitude": -13.7782,
    "longitude": -39.683
  },
  {
    "codigoIbge": 2915809,
    "cidade": "Itambé",
    "uf": "BA",
    "latitude": -15.2429,
    "longitude": -40.63
  },
  {
    "codigoIbge": 2915908,
    "cidade": "Itanagra",
    "uf": "BA",
    "latitude": -12.2614,
    "longitude": -38.0436
  },
  {
    "codigoIbge": 2916005,
    "cidade": "Itanhém",
    "uf": "BA",
    "latitude": -17.1642,
    "longitude": -40.3321
  },
  {
    "codigoIbge": 2916104,
    "cidade": "Itaparica",
    "uf": "BA",
    "latitude": -12.8932,
    "longitude": -38.68
  },
  {
    "codigoIbge": 2916203,
    "cidade": "Itapé",
    "uf": "BA",
    "latitude": -14.8876,
    "longitude": -39.4239
  },
  {
    "codigoIbge": 2916302,
    "cidade": "Itapebi",
    "uf": "BA",
    "latitude": -15.9551,
    "longitude": -39.5329
  },
  {
    "codigoIbge": 2916401,
    "cidade": "Itapetinga",
    "uf": "BA",
    "latitude": -15.2475,
    "longitude": -40.2482
  },
  {
    "codigoIbge": 2916500,
    "cidade": "Itapicuru",
    "uf": "BA",
    "latitude": -11.3088,
    "longitude": -38.2262
  },
  {
    "codigoIbge": 2916609,
    "cidade": "Itapitanga",
    "uf": "BA",
    "latitude": -14.4139,
    "longitude": -39.5657
  },
  {
    "codigoIbge": 2916708,
    "cidade": "Itaquara",
    "uf": "BA",
    "latitude": -13.4459,
    "longitude": -39.9378
  },
  {
    "codigoIbge": 2916807,
    "cidade": "Itarantim",
    "uf": "BA",
    "latitude": -15.6528,
    "longitude": -40.065
  },
  {
    "codigoIbge": 2916856,
    "cidade": "Itatim",
    "uf": "BA",
    "latitude": -12.7099,
    "longitude": -39.6952
  },
  {
    "codigoIbge": 2916906,
    "cidade": "Itiruçu",
    "uf": "BA",
    "latitude": -13.529,
    "longitude": -40.1472
  },
  {
    "codigoIbge": 2917003,
    "cidade": "Itiúba",
    "uf": "BA",
    "latitude": -10.6948,
    "longitude": -39.8446
  },
  {
    "codigoIbge": 2917102,
    "cidade": "Itororó",
    "uf": "BA",
    "latitude": -15.11,
    "longitude": -40.0684
  },
  {
    "codigoIbge": 2917201,
    "cidade": "Ituaçu",
    "uf": "BA",
    "latitude": -13.8107,
    "longitude": -41.3003
  },
  {
    "codigoIbge": 2917300,
    "cidade": "Ituberá",
    "uf": "BA",
    "latitude": -13.7249,
    "longitude": -39.1481
  },
  {
    "codigoIbge": 2917334,
    "cidade": "Iuiú",
    "uf": "BA",
    "latitude": -14.4054,
    "longitude": -43.5595
  },
  {
    "codigoIbge": 2917359,
    "cidade": "Jaborandi",
    "uf": "BA",
    "latitude": -13.6071,
    "longitude": -44.4255
  },
  {
    "codigoIbge": 2917409,
    "cidade": "Jacaraci",
    "uf": "BA",
    "latitude": -14.8541,
    "longitude": -42.4329
  },
  {
    "codigoIbge": 2917508,
    "cidade": "Jacobina",
    "uf": "BA",
    "latitude": -11.1812,
    "longitude": -40.5117
  },
  {
    "codigoIbge": 2917607,
    "cidade": "Jaguaquara",
    "uf": "BA",
    "latitude": -13.5248,
    "longitude": -39.964
  },
  {
    "codigoIbge": 2917706,
    "cidade": "Jaguarari",
    "uf": "BA",
    "latitude": -10.2569,
    "longitude": -40.1999
  },
  {
    "codigoIbge": 2917805,
    "cidade": "Jaguaripe",
    "uf": "BA",
    "latitude": -13.1109,
    "longitude": -38.8939
  },
  {
    "codigoIbge": 2917904,
    "cidade": "Jandaíra",
    "uf": "BA",
    "latitude": -11.5616,
    "longitude": -37.7853
  },
  {
    "codigoIbge": 2918001,
    "cidade": "Jequié",
    "uf": "BA",
    "latitude": -13.8509,
    "longitude": -40.0877
  },
  {
    "codigoIbge": 2918100,
    "cidade": "Jeremoabo",
    "uf": "BA",
    "latitude": -10.0685,
    "longitude": -38.3471
  },
  {
    "codigoIbge": 2918209,
    "cidade": "Jiquiriçá",
    "uf": "BA",
    "latitude": -13.2621,
    "longitude": -39.5737
  },
  {
    "codigoIbge": 2918308,
    "cidade": "Jitaúna",
    "uf": "BA",
    "latitude": -14.0131,
    "longitude": -39.8969
  },
  {
    "codigoIbge": 2918357,
    "cidade": "João Dourado",
    "uf": "BA",
    "latitude": -11.3486,
    "longitude": -41.6548
  },
  {
    "codigoIbge": 2918407,
    "cidade": "Juazeiro",
    "uf": "BA",
    "latitude": -9.41622,
    "longitude": -40.5033
  },
  {
    "codigoIbge": 2918456,
    "cidade": "Jucuruçu",
    "uf": "BA",
    "latitude": -16.8488,
    "longitude": -40.1641
  },
  {
    "codigoIbge": 2918506,
    "cidade": "Jussara",
    "uf": "BA",
    "latitude": -11.0431,
    "longitude": -41.9702
  },
  {
    "codigoIbge": 2918555,
    "cidade": "Jussari",
    "uf": "BA",
    "latitude": -15.192,
    "longitude": -39.491
  },
  {
    "codigoIbge": 2918605,
    "cidade": "Jussiape",
    "uf": "BA",
    "latitude": -13.5155,
    "longitude": -41.5882
  },
  {
    "codigoIbge": 2918704,
    "cidade": "Lafaiete Coutinho",
    "uf": "BA",
    "latitude": -13.6541,
    "longitude": -40.2119
  },
  {
    "codigoIbge": 2918753,
    "cidade": "Lagoa Real",
    "uf": "BA",
    "latitude": -14.0334,
    "longitude": -42.1328
  },
  {
    "codigoIbge": 2918803,
    "cidade": "Laje",
    "uf": "BA",
    "latitude": -13.1673,
    "longitude": -39.4213
  },
  {
    "codigoIbge": 2918902,
    "cidade": "Lajedão",
    "uf": "BA",
    "latitude": -17.6056,
    "longitude": -40.3383
  },
  {
    "codigoIbge": 2919009,
    "cidade": "Lajedinho",
    "uf": "BA",
    "latitude": -12.3529,
    "longitude": -40.9048
  },
  {
    "codigoIbge": 2919058,
    "cidade": "Lajedo do Tabocal",
    "uf": "BA",
    "latitude": -13.4663,
    "longitude": -40.2204
  },
  {
    "codigoIbge": 2919108,
    "cidade": "Lamarão",
    "uf": "BA",
    "latitude": -11.773,
    "longitude": -38.887
  },
  {
    "codigoIbge": 2919157,
    "cidade": "Lapão",
    "uf": "BA",
    "latitude": -11.3851,
    "longitude": -41.8286
  },
  {
    "codigoIbge": 2919207,
    "cidade": "Lauro de Freitas",
    "uf": "BA",
    "latitude": -12.8978,
    "longitude": -38.321
  },
  {
    "codigoIbge": 2919306,
    "cidade": "Lençóis",
    "uf": "BA",
    "latitude": -12.5616,
    "longitude": -41.3928
  },
  {
    "codigoIbge": 2919405,
    "cidade": "Licínio de Almeida",
    "uf": "BA",
    "latitude": -14.6842,
    "longitude": -42.5095
  },
  {
    "codigoIbge": 2919504,
    "cidade": "Livramento de Nossa Senhora",
    "uf": "BA",
    "latitude": -13.6369,
    "longitude": -41.8432
  },
  {
    "codigoIbge": 2919553,
    "cidade": "Luís Eduardo Magalhães",
    "uf": "BA",
    "latitude": -12.0956,
    "longitude": -45.7866
  },
  {
    "codigoIbge": 2919603,
    "cidade": "Macajuba",
    "uf": "BA",
    "latitude": -12.1326,
    "longitude": -40.3571
  },
  {
    "codigoIbge": 2919702,
    "cidade": "Macarani",
    "uf": "BA",
    "latitude": -15.5646,
    "longitude": -40.4209
  },
  {
    "codigoIbge": 2919801,
    "cidade": "Macaúbas",
    "uf": "BA",
    "latitude": -13.0186,
    "longitude": -42.6945
  },
  {
    "codigoIbge": 2919900,
    "cidade": "Macururé",
    "uf": "BA",
    "latitude": -9.16226,
    "longitude": -39.0518
  },
  {
    "codigoIbge": 2919926,
    "cidade": "Madre de Deus",
    "uf": "BA",
    "latitude": -12.7446,
    "longitude": -38.6153
  },
  {
    "codigoIbge": 2919959,
    "cidade": "Maetinga",
    "uf": "BA",
    "latitude": -14.6623,
    "longitude": -41.4915
  },
  {
    "codigoIbge": 2920007,
    "cidade": "Maiquinique",
    "uf": "BA",
    "latitude": -15.624,
    "longitude": -40.2587
  },
  {
    "codigoIbge": 2920106,
    "cidade": "Mairi",
    "uf": "BA",
    "latitude": -11.7107,
    "longitude": -40.1437
  },
  {
    "codigoIbge": 2920205,
    "cidade": "Malhada",
    "uf": "BA",
    "latitude": -14.3371,
    "longitude": -43.7686
  },
  {
    "codigoIbge": 2920304,
    "cidade": "Malhada de Pedras",
    "uf": "BA",
    "latitude": -14.3847,
    "longitude": -41.8842
  },
  {
    "codigoIbge": 2920403,
    "cidade": "Manoel Vitorino",
    "uf": "BA",
    "latitude": -14.1476,
    "longitude": -40.2399
  },
  {
    "codigoIbge": 2920452,
    "cidade": "Mansidão",
    "uf": "BA",
    "latitude": -10.7227,
    "longitude": -44.0428
  },
  {
    "codigoIbge": 2920502,
    "cidade": "Maracás",
    "uf": "BA",
    "latitude": -13.4355,
    "longitude": -40.4323
  },
  {
    "codigoIbge": 2920601,
    "cidade": "Maragogipe",
    "uf": "BA",
    "latitude": -12.776,
    "longitude": -38.9175
  },
  {
    "codigoIbge": 2920700,
    "cidade": "Maraú",
    "uf": "BA",
    "latitude": -14.1035,
    "longitude": -39.0137
  },
  {
    "codigoIbge": 2920809,
    "cidade": "Marcionílio Souza",
    "uf": "BA",
    "latitude": -13.0064,
    "longitude": -40.5295
  },
  {
    "codigoIbge": 2920908,
    "cidade": "Mascote",
    "uf": "BA",
    "latitude": -15.5542,
    "longitude": -39.3016
  },
  {
    "codigoIbge": 2921005,
    "cidade": "Mata de São João",
    "uf": "BA",
    "latitude": -12.5307,
    "longitude": -38.3009
  },
  {
    "codigoIbge": 2921054,
    "cidade": "Matina",
    "uf": "BA",
    "latitude": -13.9109,
    "longitude": -42.8439
  },
  {
    "codigoIbge": 2921104,
    "cidade": "Medeiros Neto",
    "uf": "BA",
    "latitude": -17.3707,
    "longitude": -40.2238
  },
  {
    "codigoIbge": 2921203,
    "cidade": "Miguel Calmon",
    "uf": "BA",
    "latitude": -11.4299,
    "longitude": -40.6031
  },
  {
    "codigoIbge": 2921302,
    "cidade": "Milagres",
    "uf": "BA",
    "latitude": -12.8646,
    "longitude": -39.8611
  },
  {
    "codigoIbge": 2921401,
    "cidade": "Mirangaba",
    "uf": "BA",
    "latitude": -10.961,
    "longitude": -40.574
  },
  {
    "codigoIbge": 2921450,
    "cidade": "Mirante",
    "uf": "BA",
    "latitude": -14.2385,
    "longitude": -40.7718
  },
  {
    "codigoIbge": 2921500,
    "cidade": "Monte Santo",
    "uf": "BA",
    "latitude": -10.4374,
    "longitude": -39.3321
  },
  {
    "codigoIbge": 2921609,
    "cidade": "Morpará",
    "uf": "BA",
    "latitude": -11.5569,
    "longitude": -43.2766
  },
  {
    "codigoIbge": 2921708,
    "cidade": "Morro do Chapéu",
    "uf": "BA",
    "latitude": -11.5488,
    "longitude": -41.1565
  },
  {
    "codigoIbge": 2921807,
    "cidade": "Mortugaba",
    "uf": "BA",
    "latitude": -15.0225,
    "longitude": -42.3727
  },
  {
    "codigoIbge": 2921906,
    "cidade": "Mucugê",
    "uf": "BA",
    "latitude": -13.0053,
    "longitude": -41.3703
  },
  {
    "codigoIbge": 2922003,
    "cidade": "Mucuri",
    "uf": "BA",
    "latitude": -18.0754,
    "longitude": -39.5565
  },
  {
    "codigoIbge": 2922052,
    "cidade": "Mulungu do Morro",
    "uf": "BA",
    "latitude": -11.9648,
    "longitude": -41.6374
  },
  {
    "codigoIbge": 2922102,
    "cidade": "Mundo Novo",
    "uf": "BA",
    "latitude": -11.8541,
    "longitude": -40.4714
  },
  {
    "codigoIbge": 2922201,
    "cidade": "Muniz Ferreira",
    "uf": "BA",
    "latitude": -13.0092,
    "longitude": -39.1092
  },
  {
    "codigoIbge": 2922250,
    "cidade": "Muquém de São Francisco",
    "uf": "BA",
    "latitude": -12.065,
    "longitude": -43.5497
  },
  {
    "codigoIbge": 2922300,
    "cidade": "Muritiba",
    "uf": "BA",
    "latitude": -12.6329,
    "longitude": -38.9921
  },
  {
    "codigoIbge": 2922409,
    "cidade": "Mutuípe",
    "uf": "BA",
    "latitude": -13.2284,
    "longitude": -39.5044
  },
  {
    "codigoIbge": 2922508,
    "cidade": "Nazaré",
    "uf": "BA",
    "latitude": -13.0235,
    "longitude": -39.0108
  },
  {
    "codigoIbge": 2922607,
    "cidade": "Nilo Peçanha",
    "uf": "BA",
    "latitude": -13.604,
    "longitude": -39.1091
  },
  {
    "codigoIbge": 2922656,
    "cidade": "Nordestina",
    "uf": "BA",
    "latitude": -10.8192,
    "longitude": -39.4297
  },
  {
    "codigoIbge": 2922706,
    "cidade": "Nova Canaã",
    "uf": "BA",
    "latitude": -14.7912,
    "longitude": -40.1458
  },
  {
    "codigoIbge": 2922730,
    "cidade": "Nova Fátima",
    "uf": "BA",
    "latitude": -11.6031,
    "longitude": -39.6302
  },
  {
    "codigoIbge": 2922755,
    "cidade": "Nova Ibiá",
    "uf": "BA",
    "latitude": -13.812,
    "longitude": -39.6182
  },
  {
    "codigoIbge": 2922805,
    "cidade": "Nova Itarana",
    "uf": "BA",
    "latitude": -13.0241,
    "longitude": -40.0653
  },
  {
    "codigoIbge": 2922854,
    "cidade": "Nova Redenção",
    "uf": "BA",
    "latitude": -12.815,
    "longitude": -41.0748
  },
  {
    "codigoIbge": 2922904,
    "cidade": "Nova Soure",
    "uf": "BA",
    "latitude": -11.2329,
    "longitude": -38.4871
  },
  {
    "codigoIbge": 2923001,
    "cidade": "Nova Viçosa",
    "uf": "BA",
    "latitude": -17.8926,
    "longitude": -39.3743
  },
  {
    "codigoIbge": 2923035,
    "cidade": "Novo Horizonte",
    "uf": "BA",
    "latitude": -12.8083,
    "longitude": -42.1682
  },
  {
    "codigoIbge": 2923050,
    "cidade": "Novo Triunfo",
    "uf": "BA",
    "latitude": -10.3182,
    "longitude": -38.4014
  },
  {
    "codigoIbge": 2923100,
    "cidade": "Olindina",
    "uf": "BA",
    "latitude": -11.3497,
    "longitude": -38.3379
  },
  {
    "codigoIbge": 2923209,
    "cidade": "Oliveira dos Brejinhos",
    "uf": "BA",
    "latitude": -12.3132,
    "longitude": -42.8969
  },
  {
    "codigoIbge": 2923308,
    "cidade": "Ouriçangas",
    "uf": "BA",
    "latitude": -12.0175,
    "longitude": -38.6166
  },
  {
    "codigoIbge": 2923357,
    "cidade": "Ourolândia",
    "uf": "BA",
    "latitude": -10.9578,
    "longitude": -41.0756
  },
  {
    "codigoIbge": 2923407,
    "cidade": "Palmas de Monte Alto",
    "uf": "BA",
    "latitude": -14.2676,
    "longitude": -43.1609
  },
  {
    "codigoIbge": 2923506,
    "cidade": "Palmeiras",
    "uf": "BA",
    "latitude": -12.5059,
    "longitude": -41.5809
  },
  {
    "codigoIbge": 2923605,
    "cidade": "Paramirim",
    "uf": "BA",
    "latitude": -13.4388,
    "longitude": -42.2395
  },
  {
    "codigoIbge": 2923704,
    "cidade": "Paratinga",
    "uf": "BA",
    "latitude": -12.687,
    "longitude": -43.1798
  },
  {
    "codigoIbge": 2923803,
    "cidade": "Paripiranga",
    "uf": "BA",
    "latitude": -10.6859,
    "longitude": -37.8626
  },
  {
    "codigoIbge": 2923902,
    "cidade": "Pau Brasil",
    "uf": "BA",
    "latitude": -15.4572,
    "longitude": -39.6458
  },
  {
    "codigoIbge": 2924009,
    "cidade": "Paulo Afonso",
    "uf": "BA",
    "latitude": -9.3983,
    "longitude": -38.2216
  },
  {
    "codigoIbge": 2924058,
    "cidade": "Pé de Serra",
    "uf": "BA",
    "latitude": -11.8313,
    "longitude": -39.611
  },
  {
    "codigoIbge": 2924108,
    "cidade": "Pedrão",
    "uf": "BA",
    "latitude": -12.1491,
    "longitude": -38.6487
  },
  {
    "codigoIbge": 2924207,
    "cidade": "Pedro Alexandre",
    "uf": "BA",
    "latitude": -10.012,
    "longitude": -37.8932
  },
  {
    "codigoIbge": 2924306,
    "cidade": "Piatã",
    "uf": "BA",
    "latitude": -13.1465,
    "longitude": -41.7702
  },
  {
    "codigoIbge": 2924405,
    "cidade": "Pilão Arcado",
    "uf": "BA",
    "latitude": -10.0051,
    "longitude": -42.4936
  },
  {
    "codigoIbge": 2924504,
    "cidade": "Pindaí",
    "uf": "BA",
    "latitude": -14.4921,
    "longitude": -42.686
  },
  {
    "codigoIbge": 2924603,
    "cidade": "Pindobaçu",
    "uf": "BA",
    "latitude": -10.7433,
    "longitude": -40.3675
  },
  {
    "codigoIbge": 2924652,
    "cidade": "Pintadas",
    "uf": "BA",
    "latitude": -11.8117,
    "longitude": -39.9009
  },
  {
    "codigoIbge": 2924678,
    "cidade": "Piraí do Norte",
    "uf": "BA",
    "latitude": -13.759,
    "longitude": -39.3836
  },
  {
    "codigoIbge": 2924702,
    "cidade": "Piripá",
    "uf": "BA",
    "latitude": -14.9444,
    "longitude": -41.7168
  },
  {
    "codigoIbge": 2924801,
    "cidade": "Piritiba",
    "uf": "BA",
    "latitude": -11.73,
    "longitude": -40.5587
  },
  {
    "codigoIbge": 2924900,
    "cidade": "Planaltino",
    "uf": "BA",
    "latitude": -13.2618,
    "longitude": -40.3695
  },
  {
    "codigoIbge": 2925006,
    "cidade": "Planalto",
    "uf": "BA",
    "latitude": -14.6654,
    "longitude": -40.4718
  },
  {
    "codigoIbge": 2925105,
    "cidade": "Poções",
    "uf": "BA",
    "latitude": -14.5234,
    "longitude": -40.3634
  },
  {
    "codigoIbge": 2925204,
    "cidade": "Pojuca",
    "uf": "BA",
    "latitude": -12.4303,
    "longitude": -38.3374
  },
  {
    "codigoIbge": 2925253,
    "cidade": "Ponto Novo",
    "uf": "BA",
    "latitude": -10.8653,
    "longitude": -40.1311
  },
  {
    "codigoIbge": 2925303,
    "cidade": "Porto Seguro",
    "uf": "BA",
    "latitude": -16.4435,
    "longitude": -39.0643
  },
  {
    "codigoIbge": 2925402,
    "cidade": "Potiraguá",
    "uf": "BA",
    "latitude": -15.5943,
    "longitude": -39.8638
  },
  {
    "codigoIbge": 2925501,
    "cidade": "Prado",
    "uf": "BA",
    "latitude": -17.3364,
    "longitude": -39.2227
  },
  {
    "codigoIbge": 2925600,
    "cidade": "Presidente Dutra",
    "uf": "BA",
    "latitude": -11.2923,
    "longitude": -41.9843
  },
  {
    "codigoIbge": 2925709,
    "cidade": "Presidente Jânio Quadros",
    "uf": "BA",
    "latitude": -14.6885,
    "longitude": -41.6798
  },
  {
    "codigoIbge": 2925758,
    "cidade": "Presidente Tancredo Neves",
    "uf": "BA",
    "latitude": -13.4471,
    "longitude": -39.4203
  },
  {
    "codigoIbge": 2925808,
    "cidade": "Queimadas",
    "uf": "BA",
    "latitude": -10.9736,
    "longitude": -39.6293
  },
  {
    "codigoIbge": 2925907,
    "cidade": "Quijingue",
    "uf": "BA",
    "latitude": -10.7505,
    "longitude": -39.2137
  },
  {
    "codigoIbge": 2925931,
    "cidade": "Quixabeira",
    "uf": "BA",
    "latitude": -11.4031,
    "longitude": -40.12
  },
  {
    "codigoIbge": 2925956,
    "cidade": "Rafael Jambeiro",
    "uf": "BA",
    "latitude": -12.4053,
    "longitude": -39.5007
  },
  {
    "codigoIbge": 2926004,
    "cidade": "Remanso",
    "uf": "BA",
    "latitude": -9.61944,
    "longitude": -42.0848
  },
  {
    "codigoIbge": 2926103,
    "cidade": "Retirolândia",
    "uf": "BA",
    "latitude": -11.4832,
    "longitude": -39.4234
  },
  {
    "codigoIbge": 2926202,
    "cidade": "Riachão das Neves",
    "uf": "BA",
    "latitude": -11.7508,
    "longitude": -44.9143
  },
  {
    "codigoIbge": 2926301,
    "cidade": "Riachão do Jacuípe",
    "uf": "BA",
    "latitude": -11.8067,
    "longitude": -39.3818
  },
  {
    "codigoIbge": 2926400,
    "cidade": "Riacho de Santana",
    "uf": "BA",
    "latitude": -13.6059,
    "longitude": -42.9397
  },
  {
    "codigoIbge": 2926509,
    "cidade": "Ribeira do Amparo",
    "uf": "BA",
    "latitude": -11.0421,
    "longitude": -38.4242
  },
  {
    "codigoIbge": 2926608,
    "cidade": "Ribeira do Pombal",
    "uf": "BA",
    "latitude": -10.8373,
    "longitude": -38.5382
  },
  {
    "codigoIbge": 2926657,
    "cidade": "Ribeirão do Largo",
    "uf": "BA",
    "latitude": -15.4508,
    "longitude": -40.7441
  },
  {
    "codigoIbge": 2926707,
    "cidade": "Rio de Contas",
    "uf": "BA",
    "latitude": -13.5852,
    "longitude": -41.8048
  },
  {
    "codigoIbge": 2926806,
    "cidade": "Rio do Antônio",
    "uf": "BA",
    "latitude": -14.4071,
    "longitude": -42.0721
  },
  {
    "codigoIbge": 2926905,
    "cidade": "Rio do Pires",
    "uf": "BA",
    "latitude": -13.1185,
    "longitude": -42.2902
  },
  {
    "codigoIbge": 2927002,
    "cidade": "Rio Real",
    "uf": "BA",
    "latitude": -11.4814,
    "longitude": -37.9332
  },
  {
    "codigoIbge": 2927101,
    "cidade": "Rodelas",
    "uf": "BA",
    "latitude": -8.85021,
    "longitude": -38.78
  },
  {
    "codigoIbge": 2927200,
    "cidade": "Ruy Barbosa",
    "uf": "BA",
    "latitude": -12.2816,
    "longitude": -40.4931
  },
  {
    "codigoIbge": 2927309,
    "cidade": "Salinas da Margarida",
    "uf": "BA",
    "latitude": -12.873,
    "longitude": -38.7562
  },
  {
    "codigoIbge": 2927408,
    "cidade": "Salvador",
    "uf": "BA",
    "latitude": -12.9718,
    "longitude": -38.5011
  },
  {
    "codigoIbge": 2927507,
    "cidade": "Santa Bárbara",
    "uf": "BA",
    "latitude": -11.9515,
    "longitude": -38.9681
  },
  {
    "codigoIbge": 2927606,
    "cidade": "Santa Brígida",
    "uf": "BA",
    "latitude": -9.73227,
    "longitude": -38.1209
  },
  {
    "codigoIbge": 2927705,
    "cidade": "Santa Cruz Cabrália",
    "uf": "BA",
    "latitude": -16.2825,
    "longitude": -39.0295
  },
  {
    "codigoIbge": 2927804,
    "cidade": "Santa Cruz da Vitória",
    "uf": "BA",
    "latitude": -14.964,
    "longitude": -39.8115
  },
  {
    "codigoIbge": 2927903,
    "cidade": "Santa Inês",
    "uf": "BA",
    "latitude": -13.2793,
    "longitude": -39.814
  },
  {
    "codigoIbge": 2928059,
    "cidade": "Santa Luzia",
    "uf": "BA",
    "latitude": -15.4342,
    "longitude": -39.3287
  },
  {
    "codigoIbge": 2928109,
    "cidade": "Santa Maria da Vitória",
    "uf": "BA",
    "latitude": -13.3859,
    "longitude": -44.2011
  },
  {
    "codigoIbge": 2928406,
    "cidade": "Santa Rita de Cássia",
    "uf": "BA",
    "latitude": -11.0063,
    "longitude": -44.5255
  },
  {
    "codigoIbge": 2928505,
    "cidade": "Santa Teresinha",
    "uf": "BA",
    "latitude": -12.7697,
    "longitude": -39.5215
  },
  {
    "codigoIbge": 2928000,
    "cidade": "Santaluz",
    "uf": "BA",
    "latitude": -11.2508,
    "longitude": -39.375
  },
  {
    "codigoIbge": 2928208,
    "cidade": "Santana",
    "uf": "BA",
    "latitude": -12.9792,
    "longitude": -44.0506
  },
  {
    "codigoIbge": 2928307,
    "cidade": "Santanópolis",
    "uf": "BA",
    "latitude": -12.0311,
    "longitude": -38.8694
  },
  {
    "codigoIbge": 2928604,
    "cidade": "Santo Amaro",
    "uf": "BA",
    "latitude": -12.5472,
    "longitude": -38.7137
  },
  {
    "codigoIbge": 2928703,
    "cidade": "Santo Antônio de Jesus",
    "uf": "BA",
    "latitude": -12.9614,
    "longitude": -39.2584
  },
  {
    "codigoIbge": 2928802,
    "cidade": "Santo Estêvão",
    "uf": "BA",
    "latitude": -12.428,
    "longitude": -39.2505
  },
  {
    "codigoIbge": 2928901,
    "cidade": "São Desidério",
    "uf": "BA",
    "latitude": -12.3572,
    "longitude": -44.9769
  },
  {
    "codigoIbge": 2928950,
    "cidade": "São Domingos",
    "uf": "BA",
    "latitude": -11.4649,
    "longitude": -39.5268
  },
  {
    "codigoIbge": 2929107,
    "cidade": "São Felipe",
    "uf": "BA",
    "latitude": -12.8394,
    "longitude": -39.0893
  },
  {
    "codigoIbge": 2929008,
    "cidade": "São Félix",
    "uf": "BA",
    "latitude": -12.6104,
    "longitude": -38.9727
  },
  {
    "codigoIbge": 2929057,
    "cidade": "São Félix do Coribe",
    "uf": "BA",
    "latitude": -13.4019,
    "longitude": -44.1837
  },
  {
    "codigoIbge": 2929206,
    "cidade": "São Francisco do Conde",
    "uf": "BA",
    "latitude": -12.6183,
    "longitude": -38.6786
  },
  {
    "codigoIbge": 2929255,
    "cidade": "São Gabriel",
    "uf": "BA",
    "latitude": -11.2175,
    "longitude": -41.8843
  },
  {
    "codigoIbge": 2929305,
    "cidade": "São Gonçalo dos Campos",
    "uf": "BA",
    "latitude": -12.4331,
    "longitude": -38.9663
  },
  {
    "codigoIbge": 2929354,
    "cidade": "São José da Vitória",
    "uf": "BA",
    "latitude": -15.0787,
    "longitude": -39.3437
  },
  {
    "codigoIbge": 2929370,
    "cidade": "São José do Jacuípe",
    "uf": "BA",
    "latitude": -11.4137,
    "longitude": -39.8669
  },
  {
    "codigoIbge": 2929404,
    "cidade": "São Miguel das Matas",
    "uf": "BA",
    "latitude": -13.0434,
    "longitude": -39.4578
  },
  {
    "codigoIbge": 2929503,
    "cidade": "São Sebastião do Passé",
    "uf": "BA",
    "latitude": -12.5123,
    "longitude": -38.4905
  },
  {
    "codigoIbge": 2929602,
    "cidade": "Sapeaçu",
    "uf": "BA",
    "latitude": -12.7208,
    "longitude": -39.1824
  },
  {
    "codigoIbge": 2929701,
    "cidade": "Sátiro Dias",
    "uf": "BA",
    "latitude": -11.5929,
    "longitude": -38.5938
  },
  {
    "codigoIbge": 2929750,
    "cidade": "Saubara",
    "uf": "BA",
    "latitude": -12.7387,
    "longitude": -38.7625
  },
  {
    "codigoIbge": 2929800,
    "cidade": "Saúde",
    "uf": "BA",
    "latitude": -10.9428,
    "longitude": -40.4155
  },
  {
    "codigoIbge": 2929909,
    "cidade": "Seabra",
    "uf": "BA",
    "latitude": -12.4169,
    "longitude": -41.7722
  },
  {
    "codigoIbge": 2930006,
    "cidade": "Sebastião Laranjeiras",
    "uf": "BA",
    "latitude": -14.571,
    "longitude": -42.9434
  },
  {
    "codigoIbge": 2930105,
    "cidade": "Senhor do Bonfim",
    "uf": "BA",
    "latitude": -10.4594,
    "longitude": -40.1865
  },
  {
    "codigoIbge": 2930204,
    "cidade": "Sento Sé",
    "uf": "BA",
    "latitude": -9.74138,
    "longitude": -41.8786
  },
  {
    "codigoIbge": 2930154,
    "cidade": "Serra do Ramalho",
    "uf": "BA",
    "latitude": -13.5659,
    "longitude": -43.5929
  },
  {
    "codigoIbge": 2930303,
    "cidade": "Serra Dourada",
    "uf": "BA",
    "latitude": -12.759,
    "longitude": -43.9504
  },
  {
    "codigoIbge": 2930402,
    "cidade": "Serra Preta",
    "uf": "BA",
    "latitude": -12.156,
    "longitude": -39.3305
  },
  {
    "codigoIbge": 2930501,
    "cidade": "Serrinha",
    "uf": "BA",
    "latitude": -11.6584,
    "longitude": -39.01
  },
  {
    "codigoIbge": 2930600,
    "cidade": "Serrolândia",
    "uf": "BA",
    "latitude": -11.4085,
    "longitude": -40.2983
  },
  {
    "codigoIbge": 2930709,
    "cidade": "Simões Filho",
    "uf": "BA",
    "latitude": -12.7866,
    "longitude": -38.4029
  },
  {
    "codigoIbge": 2930758,
    "cidade": "Sítio do Mato",
    "uf": "BA",
    "latitude": -13.0801,
    "longitude": -43.4689
  },
  {
    "codigoIbge": 2930766,
    "cidade": "Sítio do Quinto",
    "uf": "BA",
    "latitude": -10.3545,
    "longitude": -38.2213
  },
  {
    "codigoIbge": 2930774,
    "cidade": "Sobradinho",
    "uf": "BA",
    "latitude": -9.45024,
    "longitude": -40.8145
  },
  {
    "codigoIbge": 2930808,
    "cidade": "Souto Soares",
    "uf": "BA",
    "latitude": -12.088,
    "longitude": -41.6427
  },
  {
    "codigoIbge": 2930907,
    "cidade": "Tabocas do Brejo Velho",
    "uf": "BA",
    "latitude": -12.7026,
    "longitude": -44.0075
  },
  {
    "codigoIbge": 2931004,
    "cidade": "Tanhaçu",
    "uf": "BA",
    "latitude": -14.0197,
    "longitude": -41.2473
  },
  {
    "codigoIbge": 2931053,
    "cidade": "Tanque Novo",
    "uf": "BA",
    "latitude": -13.5485,
    "longitude": -42.4934
  },
  {
    "codigoIbge": 2931103,
    "cidade": "Tanquinho",
    "uf": "BA",
    "latitude": -11.968,
    "longitude": -39.1033
  },
  {
    "codigoIbge": 2931202,
    "cidade": "Taperoá",
    "uf": "BA",
    "latitude": -13.5321,
    "longitude": -39.1009
  },
  {
    "codigoIbge": 2931301,
    "cidade": "Tapiramutá",
    "uf": "BA",
    "latitude": -11.8475,
    "longitude": -40.7927
  },
  {
    "codigoIbge": 2931350,
    "cidade": "Teixeira de Freitas",
    "uf": "BA",
    "latitude": -17.5399,
    "longitude": -39.74
  },
  {
    "codigoIbge": 2931400,
    "cidade": "Teodoro Sampaio",
    "uf": "BA",
    "latitude": -12.295,
    "longitude": -38.6347
  },
  {
    "codigoIbge": 2931509,
    "cidade": "Teofilândia",
    "uf": "BA",
    "latitude": -11.4827,
    "longitude": -38.9913
  },
  {
    "codigoIbge": 2931608,
    "cidade": "Teolândia",
    "uf": "BA",
    "latitude": -13.5896,
    "longitude": -39.484
  },
  {
    "codigoIbge": 2931707,
    "cidade": "Terra Nova",
    "uf": "BA",
    "latitude": -12.3888,
    "longitude": -38.6238
  },
  {
    "codigoIbge": 2931806,
    "cidade": "Tremedal",
    "uf": "BA",
    "latitude": -14.9736,
    "longitude": -41.4142
  },
  {
    "codigoIbge": 2931905,
    "cidade": "Tucano",
    "uf": "BA",
    "latitude": -10.9584,
    "longitude": -38.7894
  },
  {
    "codigoIbge": 2932002,
    "cidade": "Uauá",
    "uf": "BA",
    "latitude": -9.83325,
    "longitude": -39.4794
  },
  {
    "codigoIbge": 2932101,
    "cidade": "Ubaíra",
    "uf": "BA",
    "latitude": -13.2714,
    "longitude": -39.666
  },
  {
    "codigoIbge": 2932200,
    "cidade": "Ubaitaba",
    "uf": "BA",
    "latitude": -14.303,
    "longitude": -39.3222
  },
  {
    "codigoIbge": 2932309,
    "cidade": "Ubatã",
    "uf": "BA",
    "latitude": -14.2063,
    "longitude": -39.5207
  },
  {
    "codigoIbge": 2932408,
    "cidade": "Uibaí",
    "uf": "BA",
    "latitude": -11.3394,
    "longitude": -42.1354
  },
  {
    "codigoIbge": 2932457,
    "cidade": "Umburanas",
    "uf": "BA",
    "latitude": -10.7339,
    "longitude": -41.3234
  },
  {
    "codigoIbge": 2932507,
    "cidade": "Una",
    "uf": "BA",
    "latitude": -15.2791,
    "longitude": -39.0765
  },
  {
    "codigoIbge": 2932606,
    "cidade": "Urandi",
    "uf": "BA",
    "latitude": -14.7678,
    "longitude": -42.6498
  },
  {
    "codigoIbge": 2932705,
    "cidade": "Uruçuca",
    "uf": "BA",
    "latitude": -14.5963,
    "longitude": -39.2851
  },
  {
    "codigoIbge": 2932804,
    "cidade": "Utinga",
    "uf": "BA",
    "latitude": -12.0783,
    "longitude": -41.0954
  },
  {
    "codigoIbge": 2932903,
    "cidade": "Valença",
    "uf": "BA",
    "latitude": -13.3669,
    "longitude": -39.073
  },
  {
    "codigoIbge": 2933000,
    "cidade": "Valente",
    "uf": "BA",
    "latitude": -11.4062,
    "longitude": -39.457
  },
  {
    "codigoIbge": 2933059,
    "cidade": "Várzea da Roça",
    "uf": "BA",
    "latitude": -11.6005,
    "longitude": -40.1328
  },
  {
    "codigoIbge": 2933109,
    "cidade": "Várzea do Poço",
    "uf": "BA",
    "latitude": -11.5273,
    "longitude": -40.3149
  },
  {
    "codigoIbge": 2933158,
    "cidade": "Várzea Nova",
    "uf": "BA",
    "latitude": -11.2557,
    "longitude": -40.9432
  },
  {
    "codigoIbge": 2933174,
    "cidade": "Varzedo",
    "uf": "BA",
    "latitude": -12.9672,
    "longitude": -39.3919
  },
  {
    "codigoIbge": 2933208,
    "cidade": "Vera Cruz",
    "uf": "BA",
    "latitude": -12.9568,
    "longitude": -38.6153
  },
  {
    "codigoIbge": 2933257,
    "cidade": "Vereda",
    "uf": "BA",
    "latitude": -17.2183,
    "longitude": -40.0974
  },
  {
    "codigoIbge": 2933307,
    "cidade": "Vitória da Conquista",
    "uf": "BA",
    "latitude": -14.8615,
    "longitude": -40.8442
  },
  {
    "codigoIbge": 2933406,
    "cidade": "Wagner",
    "uf": "BA",
    "latitude": -12.2819,
    "longitude": -41.1715
  },
  {
    "codigoIbge": 2933455,
    "cidade": "Wanderley",
    "uf": "BA",
    "latitude": -12.1144,
    "longitude": -43.8958
  },
  {
    "codigoIbge": 2933505,
    "cidade": "Wenceslau Guimarães",
    "uf": "BA",
    "latitude": -13.6908,
    "longitude": -39.4762
  },
  {
    "codigoIbge": 2933604,
    "cidade": "Xique-Xique",
    "uf": "BA",
    "latitude": -10.823,
    "longitude": -42.7245
  },
  {
    "codigoIbge": 2300101,
    "cidade": "Abaiara",
    "uf": "CE",
    "latitude": -7.34588,
    "longitude": -39.0416
  },
  {
    "codigoIbge": 2300150,
    "cidade": "Acarape",
    "uf": "CE",
    "latitude": -4.22083,
    "longitude": -38.7055
  },
  {
    "codigoIbge": 2300200,
    "cidade": "Acaraú",
    "uf": "CE",
    "latitude": -2.88769,
    "longitude": -40.1183
  },
  {
    "codigoIbge": 2300309,
    "cidade": "Acopiara",
    "uf": "CE",
    "latitude": -6.08911,
    "longitude": -39.448
  },
  {
    "codigoIbge": 2300408,
    "cidade": "Aiuaba",
    "uf": "CE",
    "latitude": -6.57122,
    "longitude": -40.1178
  },
  {
    "codigoIbge": 2300507,
    "cidade": "Alcântaras",
    "uf": "CE",
    "latitude": -3.58537,
    "longitude": -40.5479
  },
  {
    "codigoIbge": 2300606,
    "cidade": "Altaneira",
    "uf": "CE",
    "latitude": -6.99837,
    "longitude": -39.7356
  },
  {
    "codigoIbge": 2300705,
    "cidade": "Alto Santo",
    "uf": "CE",
    "latitude": -5.50894,
    "longitude": -38.2743
  },
  {
    "codigoIbge": 2300754,
    "cidade": "Amontada",
    "uf": "CE",
    "latitude": -3.36017,
    "longitude": -39.8288
  },
  {
    "codigoIbge": 2300804,
    "cidade": "Antonina do Norte",
    "uf": "CE",
    "latitude": -6.76919,
    "longitude": -39.987
  },
  {
    "codigoIbge": 2300903,
    "cidade": "Apuiarés",
    "uf": "CE",
    "latitude": -3.94506,
    "longitude": -39.4359
  },
  {
    "codigoIbge": 2301000,
    "cidade": "Aquiraz",
    "uf": "CE",
    "latitude": -3.89929,
    "longitude": -38.3896
  },
  {
    "codigoIbge": 2301109,
    "cidade": "Aracati",
    "uf": "CE",
    "latitude": -4.55826,
    "longitude": -37.7679
  },
  {
    "codigoIbge": 2301208,
    "cidade": "Aracoiaba",
    "uf": "CE",
    "latitude": -4.36872,
    "longitude": -38.8125
  },
  {
    "codigoIbge": 2301257,
    "cidade": "Ararendá",
    "uf": "CE",
    "latitude": -4.74567,
    "longitude": -40.831
  },
  {
    "codigoIbge": 2301307,
    "cidade": "Araripe",
    "uf": "CE",
    "latitude": -7.21319,
    "longitude": -40.1359
  },
  {
    "codigoIbge": 2301406,
    "cidade": "Aratuba",
    "uf": "CE",
    "latitude": -4.41229,
    "longitude": -39.0471
  },
  {
    "codigoIbge": 2301505,
    "cidade": "Arneiroz",
    "uf": "CE",
    "latitude": -6.3165,
    "longitude": -40.1653
  },
  {
    "codigoIbge": 2301604,
    "cidade": "Assaré",
    "uf": "CE",
    "latitude": -6.8669,
    "longitude": -39.8689
  },
  {
    "codigoIbge": 2301703,
    "cidade": "Aurora",
    "uf": "CE",
    "latitude": -6.93349,
    "longitude": -38.9742
  },
  {
    "codigoIbge": 2301802,
    "cidade": "Baixio",
    "uf": "CE",
    "latitude": -6.71945,
    "longitude": -38.7134
  },
  {
    "codigoIbge": 2301851,
    "cidade": "Banabuiú",
    "uf": "CE",
    "latitude": -5.30454,
    "longitude": -38.9132
  },
  {
    "codigoIbge": 2301901,
    "cidade": "Barbalha",
    "uf": "CE",
    "latitude": -7.2982,
    "longitude": -39.3021
  },
  {
    "codigoIbge": 2301950,
    "cidade": "Barreira",
    "uf": "CE",
    "latitude": -4.28921,
    "longitude": -38.6429
  },
  {
    "codigoIbge": 2302008,
    "cidade": "Barro",
    "uf": "CE",
    "latitude": -7.17188,
    "longitude": -38.7741
  },
  {
    "codigoIbge": 2302057,
    "cidade": "Barroquinha",
    "uf": "CE",
    "latitude": -3.02051,
    "longitude": -41.1358
  },
  {
    "codigoIbge": 2302107,
    "cidade": "Baturité",
    "uf": "CE",
    "latitude": -4.32598,
    "longitude": -38.8812
  },
  {
    "codigoIbge": 2302206,
    "cidade": "Beberibe",
    "uf": "CE",
    "latitude": -4.17741,
    "longitude": -38.1271
  },
  {
    "codigoIbge": 2302305,
    "cidade": "Bela Cruz",
    "uf": "CE",
    "latitude": -3.04996,
    "longitude": -40.1671
  },
  {
    "codigoIbge": 2302404,
    "cidade": "Boa Viagem",
    "uf": "CE",
    "latitude": -5.11258,
    "longitude": -39.7337
  },
  {
    "codigoIbge": 2302503,
    "cidade": "Brejo Santo",
    "uf": "CE",
    "latitude": -7.48469,
    "longitude": -38.9799
  },
  {
    "codigoIbge": 2302602,
    "cidade": "Camocim",
    "uf": "CE",
    "latitude": -2.9005,
    "longitude": -40.8544
  },
  {
    "codigoIbge": 2302701,
    "cidade": "Campos Sales",
    "uf": "CE",
    "latitude": -7.06761,
    "longitude": -40.3687
  },
  {
    "codigoIbge": 2302800,
    "cidade": "Canindé",
    "uf": "CE",
    "latitude": -4.35162,
    "longitude": -39.3155
  },
  {
    "codigoIbge": 2302909,
    "cidade": "Capistrano",
    "uf": "CE",
    "latitude": -4.45569,
    "longitude": -38.9048
  },
  {
    "codigoIbge": 2303006,
    "cidade": "Caridade",
    "uf": "CE",
    "latitude": -4.22514,
    "longitude": -39.1912
  },
  {
    "codigoIbge": 2303105,
    "cidade": "Cariré",
    "uf": "CE",
    "latitude": -3.94858,
    "longitude": -40.476
  },
  {
    "codigoIbge": 2303204,
    "cidade": "Caririaçu",
    "uf": "CE",
    "latitude": -7.02808,
    "longitude": -39.2828
  },
  {
    "codigoIbge": 2303303,
    "cidade": "Cariús",
    "uf": "CE",
    "latitude": -6.52428,
    "longitude": -39.4916
  },
  {
    "codigoIbge": 2303402,
    "cidade": "Carnaubal",
    "uf": "CE",
    "latitude": -4.15985,
    "longitude": -40.9413
  },
  {
    "codigoIbge": 2303501,
    "cidade": "Cascavel",
    "uf": "CE",
    "latitude": -4.12967,
    "longitude": -38.2412
  },
  {
    "codigoIbge": 2303600,
    "cidade": "Catarina",
    "uf": "CE",
    "latitude": -6.12291,
    "longitude": -39.8736
  },
  {
    "codigoIbge": 2303659,
    "cidade": "Catunda",
    "uf": "CE",
    "latitude": -4.64336,
    "longitude": -40.2
  },
  {
    "codigoIbge": 2303709,
    "cidade": "Caucaia",
    "uf": "CE",
    "latitude": -3.72797,
    "longitude": -38.6619
  },
  {
    "codigoIbge": 2303808,
    "cidade": "Cedro",
    "uf": "CE",
    "latitude": -6.60034,
    "longitude": -39.0609
  },
  {
    "codigoIbge": 2303907,
    "cidade": "Chaval",
    "uf": "CE",
    "latitude": -3.03571,
    "longitude": -41.2435
  },
  {
    "codigoIbge": 2303931,
    "cidade": "Choró",
    "uf": "CE",
    "latitude": -4.83906,
    "longitude": -39.1344
  },
  {
    "codigoIbge": 2303956,
    "cidade": "Chorozinho",
    "uf": "CE",
    "latitude": -4.28873,
    "longitude": -38.4986
  },
  {
    "codigoIbge": 2304004,
    "cidade": "Coreaú",
    "uf": "CE",
    "latitude": -3.5415,
    "longitude": -40.6587
  },
  {
    "codigoIbge": 2304103,
    "cidade": "Crateús",
    "uf": "CE",
    "latitude": -5.16768,
    "longitude": -40.6536
  },
  {
    "codigoIbge": 2304202,
    "cidade": "Crato",
    "uf": "CE",
    "latitude": -7.2153,
    "longitude": -39.4103
  },
  {
    "codigoIbge": 2304236,
    "cidade": "Croatá",
    "uf": "CE",
    "latitude": -4.40481,
    "longitude": -40.9022
  },
  {
    "codigoIbge": 2304251,
    "cidade": "Cruz",
    "uf": "CE",
    "latitude": -2.91813,
    "longitude": -40.176
  },
  {
    "codigoIbge": 2304269,
    "cidade": "Deputado Irapuan Pinheiro",
    "uf": "CE",
    "latitude": -5.91485,
    "longitude": -39.257
  },
  {
    "codigoIbge": 2304277,
    "cidade": "Ererê",
    "uf": "CE",
    "latitude": -6.02751,
    "longitude": -38.3461
  },
  {
    "codigoIbge": 2304285,
    "cidade": "Eusébio",
    "uf": "CE",
    "latitude": -3.8925,
    "longitude": -38.4559
  },
  {
    "codigoIbge": 2304301,
    "cidade": "Farias Brito",
    "uf": "CE",
    "latitude": -6.92146,
    "longitude": -39.5651
  },
  {
    "codigoIbge": 2304350,
    "cidade": "Forquilha",
    "uf": "CE",
    "latitude": -3.79945,
    "longitude": -40.2634
  },
  {
    "codigoIbge": 2304400,
    "cidade": "Fortaleza",
    "uf": "CE",
    "latitude": -3.71664,
    "longitude": -38.5423
  },
  {
    "codigoIbge": 2304459,
    "cidade": "Fortim",
    "uf": "CE",
    "latitude": -4.45126,
    "longitude": -37.7981
  },
  {
    "codigoIbge": 2304509,
    "cidade": "Frecheirinha",
    "uf": "CE",
    "latitude": -3.75557,
    "longitude": -40.818
  },
  {
    "codigoIbge": 2304608,
    "cidade": "General Sampaio",
    "uf": "CE",
    "latitude": -4.04351,
    "longitude": -39.454
  },
  {
    "codigoIbge": 2304657,
    "cidade": "Graça",
    "uf": "CE",
    "latitude": -4.04422,
    "longitude": -40.749
  },
  {
    "codigoIbge": 2304707,
    "cidade": "Granja",
    "uf": "CE",
    "latitude": -3.12788,
    "longitude": -40.8372
  },
  {
    "codigoIbge": 2304806,
    "cidade": "Granjeiro",
    "uf": "CE",
    "latitude": -6.88134,
    "longitude": -39.2144
  },
  {
    "codigoIbge": 2304905,
    "cidade": "Groaíras",
    "uf": "CE",
    "latitude": -3.91787,
    "longitude": -40.3852
  },
  {
    "codigoIbge": 2304954,
    "cidade": "Guaiúba",
    "uf": "CE",
    "latitude": -4.04057,
    "longitude": -38.6404
  },
  {
    "codigoIbge": 2305001,
    "cidade": "Guaraciaba do Norte",
    "uf": "CE",
    "latitude": -4.15814,
    "longitude": -40.7476
  },
  {
    "codigoIbge": 2305100,
    "cidade": "Guaramiranga",
    "uf": "CE",
    "latitude": -4.26248,
    "longitude": -38.932
  },
  {
    "codigoIbge": 2305209,
    "cidade": "Hidrolândia",
    "uf": "CE",
    "latitude": -4.40958,
    "longitude": -40.4056
  },
  {
    "codigoIbge": 2305233,
    "cidade": "Horizonte",
    "uf": "CE",
    "latitude": -4.1209,
    "longitude": -38.4707
  },
  {
    "codigoIbge": 2305266,
    "cidade": "Ibaretama",
    "uf": "CE",
    "latitude": -4.80376,
    "longitude": -38.7501
  },
  {
    "codigoIbge": 2305308,
    "cidade": "Ibiapina",
    "uf": "CE",
    "latitude": -3.92403,
    "longitude": -40.8911
  },
  {
    "codigoIbge": 2305332,
    "cidade": "Ibicuitinga",
    "uf": "CE",
    "latitude": -4.96999,
    "longitude": -38.6362
  },
  {
    "codigoIbge": 2305357,
    "cidade": "Icapuí",
    "uf": "CE",
    "latitude": -4.71206,
    "longitude": -37.3531
  },
  {
    "codigoIbge": 2305407,
    "cidade": "Icó",
    "uf": "CE",
    "latitude": -6.39627,
    "longitude": -38.8554
  },
  {
    "codigoIbge": 2305506,
    "cidade": "Iguatu",
    "uf": "CE",
    "latitude": -6.36281,
    "longitude": -39.2892
  },
  {
    "codigoIbge": 2305605,
    "cidade": "Independência",
    "uf": "CE",
    "latitude": -5.38789,
    "longitude": -40.3085
  },
  {
    "codigoIbge": 2305654,
    "cidade": "Ipaporanga",
    "uf": "CE",
    "latitude": -4.89764,
    "longitude": -40.7537
  },
  {
    "codigoIbge": 2305704,
    "cidade": "Ipaumirim",
    "uf": "CE",
    "latitude": -6.78265,
    "longitude": -38.7179
  },
  {
    "codigoIbge": 2305803,
    "cidade": "Ipu",
    "uf": "CE",
    "latitude": -4.31748,
    "longitude": -40.7059
  },
  {
    "codigoIbge": 2305902,
    "cidade": "Ipueiras",
    "uf": "CE",
    "latitude": -4.53802,
    "longitude": -40.7118
  },
  {
    "codigoIbge": 2306009,
    "cidade": "Iracema",
    "uf": "CE",
    "latitude": -5.8124,
    "longitude": -38.2919
  },
  {
    "codigoIbge": 2306108,
    "cidade": "Irauçuba",
    "uf": "CE",
    "latitude": -3.74737,
    "longitude": -39.7843
  },
  {
    "codigoIbge": 2306207,
    "cidade": "Itaiçaba",
    "uf": "CE",
    "latitude": -4.67146,
    "longitude": -37.833
  },
  {
    "codigoIbge": 2306256,
    "cidade": "Itaitinga",
    "uf": "CE",
    "latitude": -3.96577,
    "longitude": -38.5298
  },
  {
    "codigoIbge": 2306306,
    "cidade": "Itapajé",
    "uf": "CE",
    "latitude": -3.68314,
    "longitude": -39.5855
  },
  {
    "codigoIbge": 2306405,
    "cidade": "Itapipoca",
    "uf": "CE",
    "latitude": -3.49933,
    "longitude": -39.5836
  },
  {
    "codigoIbge": 2306504,
    "cidade": "Itapiúna",
    "uf": "CE",
    "latitude": -4.55516,
    "longitude": -38.9281
  },
  {
    "codigoIbge": 2306553,
    "cidade": "Itarema",
    "uf": "CE",
    "latitude": -2.9248,
    "longitude": -39.9167
  },
  {
    "codigoIbge": 2306603,
    "cidade": "Itatira",
    "uf": "CE",
    "latitude": -4.52608,
    "longitude": -39.6202
  },
  {
    "codigoIbge": 2306702,
    "cidade": "Jaguaretama",
    "uf": "CE",
    "latitude": -5.6051,
    "longitude": -38.7639
  },
  {
    "codigoIbge": 2306801,
    "cidade": "Jaguaribara",
    "uf": "CE",
    "latitude": -5.67765,
    "longitude": -38.5359
  },
  {
    "codigoIbge": 2306900,
    "cidade": "Jaguaribe",
    "uf": "CE",
    "latitude": -5.90213,
    "longitude": -38.6227
  },
  {
    "codigoIbge": 2307007,
    "cidade": "Jaguaruana",
    "uf": "CE",
    "latitude": -4.83151,
    "longitude": -37.781
  },
  {
    "codigoIbge": 2307106,
    "cidade": "Jardim",
    "uf": "CE",
    "latitude": -7.57599,
    "longitude": -39.2826
  },
  {
    "codigoIbge": 2307205,
    "cidade": "Jati",
    "uf": "CE",
    "latitude": -7.6797,
    "longitude": -39.0029
  },
  {
    "codigoIbge": 2307254,
    "cidade": "Jijoca de Jericoacoara",
    "uf": "CE",
    "latitude": -2.79331,
    "longitude": -40.5127
  },
  {
    "codigoIbge": 2307304,
    "cidade": "Juazeiro do Norte",
    "uf": "CE",
    "latitude": -7.19621,
    "longitude": -39.3076
  },
  {
    "codigoIbge": 2307403,
    "cidade": "Jucás",
    "uf": "CE",
    "latitude": -6.51523,
    "longitude": -39.5187
  },
  {
    "codigoIbge": 2307502,
    "cidade": "Lavras da Mangabeira",
    "uf": "CE",
    "latitude": -6.7448,
    "longitude": -38.9706
  },
  {
    "codigoIbge": 2307601,
    "cidade": "Limoeiro do Norte",
    "uf": "CE",
    "latitude": -5.14392,
    "longitude": -38.0847
  },
  {
    "codigoIbge": 2307635,
    "cidade": "Madalena",
    "uf": "CE",
    "latitude": -4.84601,
    "longitude": -39.5725
  },
  {
    "codigoIbge": 2307650,
    "cidade": "Maracanaú",
    "uf": "CE",
    "latitude": -3.86699,
    "longitude": -38.6259
  },
  {
    "codigoIbge": 2307700,
    "cidade": "Maranguape",
    "uf": "CE",
    "latitude": -3.89143,
    "longitude": -38.6829
  },
  {
    "codigoIbge": 2307809,
    "cidade": "Marco",
    "uf": "CE",
    "latitude": -3.1285,
    "longitude": -40.1582
  },
  {
    "codigoIbge": 2307908,
    "cidade": "Martinópole",
    "uf": "CE",
    "latitude": -3.2252,
    "longitude": -40.6896
  },
  {
    "codigoIbge": 2308005,
    "cidade": "Massapê",
    "uf": "CE",
    "latitude": -3.52364,
    "longitude": -40.3423
  },
  {
    "codigoIbge": 2308104,
    "cidade": "Mauriti",
    "uf": "CE",
    "latitude": -7.38597,
    "longitude": -38.7708
  },
  {
    "codigoIbge": 2308203,
    "cidade": "Meruoca",
    "uf": "CE",
    "latitude": -3.53974,
    "longitude": -40.4531
  },
  {
    "codigoIbge": 2308302,
    "cidade": "Milagres",
    "uf": "CE",
    "latitude": -7.29749,
    "longitude": -38.9378
  },
  {
    "codigoIbge": 2308351,
    "cidade": "Milhã",
    "uf": "CE",
    "latitude": -5.67252,
    "longitude": -39.1875
  },
  {
    "codigoIbge": 2308377,
    "cidade": "Miraíma",
    "uf": "CE",
    "latitude": -3.56867,
    "longitude": -39.9663
  },
  {
    "codigoIbge": 2308401,
    "cidade": "Missão Velha",
    "uf": "CE",
    "latitude": -7.23522,
    "longitude": -39.143
  },
  {
    "codigoIbge": 2308500,
    "cidade": "Mombaça",
    "uf": "CE",
    "latitude": -5.73844,
    "longitude": -39.63
  },
  {
    "codigoIbge": 2308609,
    "cidade": "Monsenhor Tabosa",
    "uf": "CE",
    "latitude": -4.79102,
    "longitude": -40.0646
  },
  {
    "codigoIbge": 2308708,
    "cidade": "Morada Nova",
    "uf": "CE",
    "latitude": -5.09736,
    "longitude": -38.3702
  },
  {
    "codigoIbge": 2308807,
    "cidade": "Moraújo",
    "uf": "CE",
    "latitude": -3.46311,
    "longitude": -40.6776
  },
  {
    "codigoIbge": 2308906,
    "cidade": "Morrinhos",
    "uf": "CE",
    "latitude": -3.23426,
    "longitude": -40.1233
  },
  {
    "codigoIbge": 2309003,
    "cidade": "Mucambo",
    "uf": "CE",
    "latitude": -3.90271,
    "longitude": -40.7452
  },
  {
    "codigoIbge": 2309102,
    "cidade": "Mulungu",
    "uf": "CE",
    "latitude": -4.30294,
    "longitude": -38.9951
  },
  {
    "codigoIbge": 2309201,
    "cidade": "Nova Olinda",
    "uf": "CE",
    "latitude": -7.08415,
    "longitude": -39.6713
  },
  {
    "codigoIbge": 2309300,
    "cidade": "Nova Russas",
    "uf": "CE",
    "latitude": -4.70581,
    "longitude": -40.5621
  },
  {
    "codigoIbge": 2309409,
    "cidade": "Novo Oriente",
    "uf": "CE",
    "latitude": -5.52552,
    "longitude": -40.7713
  },
  {
    "codigoIbge": 2309458,
    "cidade": "Ocara",
    "uf": "CE",
    "latitude": -4.48523,
    "longitude": -38.5933
  },
  {
    "codigoIbge": 2309508,
    "cidade": "Orós",
    "uf": "CE",
    "latitude": -6.25182,
    "longitude": -38.9053
  },
  {
    "codigoIbge": 2309607,
    "cidade": "Pacajus",
    "uf": "CE",
    "latitude": -4.17107,
    "longitude": -38.465
  },
  {
    "codigoIbge": 2309706,
    "cidade": "Pacatuba",
    "uf": "CE",
    "latitude": -3.9784,
    "longitude": -38.6183
  },
  {
    "codigoIbge": 2309805,
    "cidade": "Pacoti",
    "uf": "CE",
    "latitude": -4.22492,
    "longitude": -38.922
  },
  {
    "codigoIbge": 2309904,
    "cidade": "Pacujá",
    "uf": "CE",
    "latitude": -3.98327,
    "longitude": -40.6989
  },
  {
    "codigoIbge": 2310001,
    "cidade": "Palhano",
    "uf": "CE",
    "latitude": -4.73672,
    "longitude": -37.9655
  },
  {
    "codigoIbge": 2310100,
    "cidade": "Palmácia",
    "uf": "CE",
    "latitude": -4.13831,
    "longitude": -38.8446
  },
  {
    "codigoIbge": 2310209,
    "cidade": "Paracuru",
    "uf": "CE",
    "latitude": -3.41436,
    "longitude": -39.03
  },
  {
    "codigoIbge": 2310258,
    "cidade": "Paraipaba",
    "uf": "CE",
    "latitude": -3.43799,
    "longitude": -39.1479
  },
  {
    "codigoIbge": 2310308,
    "cidade": "Parambu",
    "uf": "CE",
    "latitude": -6.20768,
    "longitude": -40.6905
  },
  {
    "codigoIbge": 2310407,
    "cidade": "Paramoti",
    "uf": "CE",
    "latitude": -4.08815,
    "longitude": -39.2417
  },
  {
    "codigoIbge": 2310506,
    "cidade": "Pedra Branca",
    "uf": "CE",
    "latitude": -5.45341,
    "longitude": -39.7078
  },
  {
    "codigoIbge": 2310605,
    "cidade": "Penaforte",
    "uf": "CE",
    "latitude": -7.82163,
    "longitude": -39.0707
  },